{
  "version": 0.6,
  "generator": "Overpass API 0.7.62.11 87bfad18",
  "osm3s": {
    "timestamp_osm_base": "2026-06-04T03:06:58Z",
    "copyright": "The data included in this document is from www.openstreetmap.org. The data is made available under ODbL."
  },
  "elements": [

{
  "type": "node",
  "id": 267701263,
  "lat": 31.2810473,
  "lon": 120.6152182,
  "tags": {
    "highway": "motorway_junction",
    "name": "盘胥路"
  }
},
{
  "type": "node",
  "id": 267702153,
  "lat": 31.2822885,
  "lon": 120.6274423,
  "tags": {
    "highway": "motorway_junction",
    "name": "南园路/迎春路"
  }
},
{
  "type": "node",
  "id": 267702180,
  "lat": 31.2833679,
  "lon": 120.6469666,
  "tags": {
    "highway": "motorway_junction",
    "name": "吴东快速路/吴江/东方大道"
  }
},
{
  "type": "node",
  "id": 1326830466,
  "lat": 31.2831356,
  "lon": 120.6499503,
  "tags": {
    "highway": "motorway_junction",
    "name": "独墅湖大道/苏州工业园区/独墅湖高教创新区"
  }
},
{
  "type": "node",
  "id": 2716415625,
  "lat": 31.2555327,
  "lon": 120.6254096,
  "tags": {
    "name": "石湖东路",
    "name:en": "Shihu Donglu",
    "public_transport": "station",
    "railway": "station",
    "station": "subway",
    "subway": "yes"
  }
},
{
  "type": "node",
  "id": 2716415638,
  "lat": 31.2584772,
  "lon": 120.6106184,
  "tags": {
    "name": "新家桥",
    "name:en": "Xinjia Qiao",
    "public_transport": "station",
    "railway": "station",
    "station": "subway",
    "subway": "yes",
    "wikidata": "Q7967922"
  }
},
{
  "type": "node",
  "id": 2969859603,
  "lat": 31.2520388,
  "lon": 120.6439485,
  "tags": {
    "name": "宝带桥南",
    "name:en": "Baodaiqiao South",
    "public_transport": "station",
    "railway": "station",
    "station": "subway",
    "subway": "yes",
    "wikidata": "Q7568991"
  }
},
{
  "type": "node",
  "id": 3506478907,
  "lat": 31.2654926,
  "lon": 120.6279421,
  "tags": {
    "capital": "6",
    "name": "吴中区",
    "name:ceb": "Wuzhong",
    "name:de": "Wuzhong",
    "name:en": "Wuzhong",
    "name:fr": "Wuzhong",
    "name:it": "Wuzhong",
    "name:ja": "呉中区",
    "name:ko": "우중구",
    "name:nan": "Ngô͘-tiong-khu",
    "name:no": "Wuzhong",
    "name:ru": "Учжун",
    "name:sv": "Wuzhong",
    "name:th": "อำเภออู๋จง",
    "name:ur": "ووژونگ ضلع",
    "name:vi": "Ngô Trung, Tô Châu",
    "name:wuu": "吴中区",
    "name:yue": "吳中區",
    "name:zh": "吴中区",
    "name:zh-Hans": "吴中区",
    "name:zh-Hant": "吳中區",
    "name:zh-Latn-pinyin": "Wúzhōng Qū",
    "place": "city",
    "place:CN": "district",
    "wikidata": "Q943850",
    "wikipedia": "zh:吴中区"
  }
},
{
  "type": "node",
  "id": 3521759154,
  "lat": 31.2662785,
  "lon": 120.6151560,
  "tags": {
    "capital": "8",
    "name": "长桥街道",
    "name:en": "Changqiao",
    "name:zh": "长桥街道",
    "name:zh-Hans": "长桥街道",
    "name:zh-Hant": "長橋街道",
    "name:zh-Latn-pinyin": "Chángqiáo Jiēdào",
    "place": "suburb",
    "place:CN": "subdistrict",
    "wikidata": "Q13813897",
    "wikipedia": "zh:长桥街道 (苏州市)"
  }
},
{
  "type": "node",
  "id": 4400783280,
  "lat": 31.2495578,
  "lon": 120.6251667,
  "tags": {
    "amenity": "place_of_worship",
    "name": "基督教堂",
    "religion": "christian"
  }
},
{
  "type": "node",
  "id": 4411711964,
  "lat": 31.2517817,
  "lon": 120.6439743,
  "tags": {
    "level": "0",
    "name": "1",
    "railway": "subway_entrance",
    "ref": "1"
  }
},
{
  "type": "node",
  "id": 4559352460,
  "lat": 31.2700073,
  "lon": 120.6389502,
  "tags": {
    "bench": "yes",
    "bus": "yes",
    "highway": "bus_stop",
    "name": "嘉宝花园",
    "public_transport": "platform"
  }
},
{
  "type": "node",
  "id": 4559352471,
  "lat": 31.2721667,
  "lon": 120.6348698,
  "tags": {
    "bench": "yes",
    "bus": "yes",
    "highway": "bus_stop",
    "name": "迎春路宝带东路北",
    "public_transport": "platform"
  }
},
{
  "type": "node",
  "id": 4559363776,
  "lat": 31.2519867,
  "lon": 120.6597145,
  "tags": {
    "name": "尹中路",
    "name:en": "Yinzhong Lu",
    "public_transport": "station",
    "railway": "station",
    "station": "subway",
    "subway": "yes",
    "wikidata": "Q60675525"
  }
},
{
  "type": "node",
  "id": 4559992693,
  "lat": 31.2829449,
  "lon": 120.6219280,
  "tags": {
    "bench": "yes",
    "bin": "yes",
    "bus": "yes",
    "highway": "bus_stop",
    "lit": "yes",
    "name": "团结桥北",
    "public_transport": "platform",
    "shelter": "yes"
  }
},
{
  "type": "node",
  "id": 4559992698,
  "lat": 31.2840205,
  "lon": 120.6219872,
  "tags": {
    "bus": "yes",
    "highway": "bus_stop",
    "name": "团结桥北",
    "public_transport": "platform"
  }
},
{
  "type": "node",
  "id": 4570243003,
  "lat": 31.2400729,
  "lon": 120.6251936,
  "tags": {
    "name": "红庄",
    "name:en": "Hongzhuang",
    "public_transport": "station",
    "railway": "station",
    "station": "subway",
    "subway": "yes",
    "wikidata": "Q40508974"
  }
},
{
  "type": "node",
  "id": 4570243005,
  "lat": 31.2786414,
  "lon": 120.6229849,
  "tags": {
    "name": "团结桥",
    "name:en": "Tuanjie Qiao",
    "public_transport": "station",
    "railway": "station",
    "station": "subway",
    "subway": "yes"
  }
},
{
  "type": "node",
  "id": 4571626043,
  "lat": 31.2835538,
  "lon": 120.6402750,
  "tags": {
    "highway": "motorway_junction",
    "name": "吴东快速路/东环快速路/常熟/吴江"
  }
},
{
  "type": "node",
  "id": 4596174540,
  "lat": 31.2698836,
  "lon": 120.6361961,
  "tags": {
    "name": "迎春路",
    "name:en": "Yingchunlu",
    "public_transport": "station",
    "railway": "station",
    "station": "subway",
    "subway": "yes",
    "wheelchair": "yes"
  }
},
{
  "type": "node",
  "id": 4596174541,
  "lat": 31.2720266,
  "lon": 120.6526548,
  "tags": {
    "name": "北港路",
    "name:en": "Beiganglu",
    "public_transport": "station",
    "railway": "station",
    "station": "subway",
    "subway": "yes"
  }
},
{
  "type": "node",
  "id": 4620002078,
  "lat": 31.2834824,
  "lon": 120.6377458,
  "tags": {
    "highway": "motorway_junction",
    "name": "迎春路"
  }
},
{
  "type": "node",
  "id": 4676828201,
  "lat": 31.2760397,
  "lon": 120.6345585,
  "tags": {
    "bus": "yes",
    "highway": "bus_stop",
    "name": "迎春路吴中东路",
    "public_transport": "platform"
  }
},
{
  "type": "node",
  "id": 4676828202,
  "lat": 31.2756343,
  "lon": 120.6344170,
  "tags": {
    "bus": "yes",
    "highway": "bus_stop",
    "name": "迎春路吴中东路",
    "public_transport": "platform"
  }
},
{
  "type": "node",
  "id": 4676828203,
  "lat": 31.2668976,
  "lon": 120.6425522,
  "tags": {
    "bus": "yes",
    "highway": "bus_stop",
    "name": "丹桂路太湖东路北",
    "public_transport": "platform"
  }
},
{
  "type": "node",
  "id": 4676828204,
  "lat": 31.2666986,
  "lon": 120.6423741,
  "tags": {
    "bus": "yes",
    "highway": "bus_stop",
    "name": "丹桂路太湖东路北",
    "public_transport": "platform"
  }
},
{
  "type": "node",
  "id": 4676828205,
  "lat": 31.2657509,
  "lon": 120.6540608,
  "tags": {
    "bus": "yes",
    "highway": "bus_stop",
    "name": "太湖东路大桥东",
    "public_transport": "platform"
  }
},
{
  "type": "node",
  "id": 4676828206,
  "lat": 31.2660098,
  "lon": 120.6540283,
  "tags": {
    "bus": "yes",
    "highway": "bus_stop",
    "name": "太湖东路大桥东",
    "public_transport": "platform"
  }
},
{
  "type": "node",
  "id": 4922245718,
  "lat": 31.2642809,
  "lon": 120.6250970,
  "tags": {
    "height": "168",
    "man_made": "tower",
    "name": "东吴塔"
  }
},
{
  "type": "node",
  "id": 5124122085,
  "lat": 31.2391691,
  "lon": 120.6314599,
  "tags": {
    "capital": "8",
    "name": "城南街道",
    "name:en": "Chengnan",
    "name:zh": "城南街道",
    "name:zh-Hans": "城南街道",
    "name:zh-Hant": "城南街道",
    "name:zh-Latn-pinyin": "Chéngnán Jiēdào",
    "place": "suburb",
    "place:CN": "subdistrict",
    "wikidata": "Q10929660",
    "wikipedia": "zh:城南街道 (苏州市)"
  }
},
{
  "type": "node",
  "id": 5128160452,
  "lat": 31.2616958,
  "lon": 120.6515741,
  "tags": {
    "highway": "motorway_junction",
    "name": "东方大道"
  }
},
{
  "type": "node",
  "id": 5128160498,
  "lat": 31.2778758,
  "lon": 120.6479730,
  "tags": {
    "highway": "motorway_junction",
    "name": "北港路"
  }
},
{
  "type": "node",
  "id": 5218876251,
  "lat": 31.2549864,
  "lon": 120.6254099,
  "tags": {
    "name": "石湖东路",
    "name:en": "Shihu Donglu",
    "public_transport": "station",
    "railway": "station",
    "station": "subway",
    "subway": "yes",
    "wikidata": "Q7496486"
  }
},
{
  "type": "node",
  "id": 5251566397,
  "lat": 31.2779457,
  "lon": 120.6368136,
  "tags": {
    "name": "联青社区",
    "place": "neighbourhood"
  }
},
{
  "type": "node",
  "id": 5251749174,
  "lat": 31.2839698,
  "lon": 120.6616080,
  "tags": {
    "name": "群力社区",
    "place": "neighbourhood",
    "population": "15878"
  }
},
{
  "type": "node",
  "id": 5251749196,
  "lat": 31.2825716,
  "lon": 120.6549239,
  "tags": {
    "name": "星湾社区",
    "place": "neighbourhood",
    "population": "8116"
  }
},
{
  "type": "node",
  "id": 5257370710,
  "lat": 31.2814759,
  "lon": 120.6310952,
  "tags": {
    "name": "南华社区",
    "place": "neighbourhood"
  }
},
{
  "type": "node",
  "id": 5257370713,
  "lat": 31.2806644,
  "lon": 120.6197628,
  "tags": {
    "name": "龙港苑社区",
    "place": "neighbourhood"
  }
},
{
  "type": "node",
  "id": 5257370714,
  "lat": 31.2835664,
  "lon": 120.6161284,
  "tags": {
    "name": "大龙社区",
    "place": "neighbourhood"
  }
},
{
  "type": "node",
  "id": 5257370717,
  "lat": 31.2832225,
  "lon": 120.6108874,
  "tags": {
    "name": "盘溪第二社区",
    "place": "neighbourhood"
  }
},
{
  "type": "node",
  "id": 5257372421,
  "lat": 31.2778724,
  "lon": 120.6329727,
  "tags": {
    "name": "湄长社区",
    "place": "neighbourhood"
  }
},
{
  "type": "node",
  "id": 5257372422,
  "lat": 31.2846025,
  "lon": 120.6256556,
  "tags": {
    "name": "南环第三社区",
    "place": "neighbourhood"
  }
},
{
  "type": "node",
  "id": 5257372424,
  "lat": 31.2842082,
  "lon": 120.6295073,
  "tags": {
    "name": "南环第一社区",
    "place": "neighbourhood"
  }
},
{
  "type": "node",
  "id": 5257873321,
  "lat": 31.2777990,
  "lon": 120.6227052,
  "tags": {
    "name": "西塘社区",
    "place": "neighbourhood"
  }
},
{
  "type": "node",
  "id": 5257873322,
  "lat": 31.2779640,
  "lon": 120.6297862,
  "tags": {
    "name": "苑北社区",
    "place": "neighbourhood"
  }
},
{
  "type": "node",
  "id": 5257873323,
  "lat": 31.2752223,
  "lon": 120.6299418,
  "tags": {
    "name": "南区社区",
    "place": "neighbourhood"
  }
},
{
  "type": "node",
  "id": 5257873324,
  "lat": 31.2742686,
  "lon": 120.6380582,
  "tags": {
    "name": "苑东社区",
    "place": "neighbourhood"
  }
},
{
  "type": "node",
  "id": 5257873325,
  "lat": 31.2732920,
  "lon": 120.6323826,
  "tags": {
    "name": "月浜社区",
    "place": "neighbourhood"
  }
},
{
  "type": "node",
  "id": 5261903443,
  "lat": 31.2765717,
  "lon": 120.6134750,
  "tags": {
    "name": "新景苑社区",
    "place": "neighbourhood"
  }
},
{
  "type": "node",
  "id": 5261903444,
  "lat": 31.2662524,
  "lon": 120.6184765,
  "tags": {
    "name": "新苑社区",
    "place": "neighbourhood"
  }
},
{
  "type": "node",
  "id": 5261903445,
  "lat": 31.2726333,
  "lon": 120.6150045,
  "tags": {
    "name": "龙苑社区",
    "place": "neighbourhood"
  }
},
{
  "type": "node",
  "id": 5261903446,
  "lat": 31.2718598,
  "lon": 120.6182650,
  "tags": {
    "name": "吴中苑社区",
    "place": "neighbourhood"
  }
},
{
  "type": "node",
  "id": 5261903447,
  "lat": 31.2725996,
  "lon": 120.6118521,
  "tags": {
    "name": "龙华苑社区",
    "place": "neighbourhood"
  }
},
{
  "type": "node",
  "id": 5261903448,
  "lat": 31.2767146,
  "lon": 120.6110063,
  "tags": {
    "name": "城西苑社区",
    "place": "neighbourhood"
  }
},
{
  "type": "node",
  "id": 5261903449,
  "lat": 31.2756848,
  "lon": 120.6149553,
  "tags": {
    "name": "水香苑社区",
    "place": "neighbourhood"
  }
},
{
  "type": "node",
  "id": 5261903450,
  "lat": 31.2673537,
  "lon": 120.6387431,
  "tags": {
    "name": "宝带社区",
    "place": "neighbourhood"
  }
},
{
  "type": "node",
  "id": 5261903451,
  "lat": 31.2648652,
  "lon": 120.6319613,
  "tags": {
    "name": "澹台湖社区",
    "place": "neighbourhood"
  }
},
{
  "type": "node",
  "id": 5261903452,
  "lat": 31.2701364,
  "lon": 120.6369382,
  "tags": {
    "name": "嘉宝花园社区",
    "place": "neighbourhood"
  }
},
{
  "type": "node",
  "id": 5261903453,
  "lat": 31.2720448,
  "lon": 120.6204781,
  "tags": {
    "name": "东吴花园社区",
    "place": "neighbourhood"
  }
},
{
  "type": "node",
  "id": 5261903454,
  "lat": 31.2738270,
  "lon": 120.6256960,
  "tags": {
    "name": "苑南社区",
    "place": "neighbourhood"
  }
},
{
  "type": "node",
  "id": 5261903455,
  "lat": 31.2480321,
  "lon": 120.6158159,
  "tags": {
    "name": "天华社区",
    "place": "neighbourhood"
  }
},
{
  "type": "node",
  "id": 5261903456,
  "lat": 31.2447694,
  "lon": 120.6204289,
  "tags": {
    "name": "长蠡社区",
    "place": "neighbourhood"
  }
},
{
  "type": "node",
  "id": 5261903460,
  "lat": 31.2534263,
  "lon": 120.6116505,
  "tags": {
    "name": "新北社区",
    "place": "neighbourhood"
  }
},
{
  "type": "node",
  "id": 5261903461,
  "lat": 31.2470441,
  "lon": 120.6123882,
  "tags": {
    "name": "蠡墅社区",
    "place": "neighbourhood"
  }
},
{
  "type": "node",
  "id": 5261903471,
  "lat": 31.2574664,
  "lon": 120.6146947,
  "tags": {
    "name": "新家社区",
    "place": "neighbourhood"
  }
},
{
  "type": "node",
  "id": 5261903506,
  "lat": 31.2686358,
  "lon": 120.6125111,
  "tags": {
    "name": "龙西社区",
    "place": "neighbourhood"
  }
},
{
  "type": "node",
  "id": 5261903507,
  "lat": 31.2688039,
  "lon": 120.6209650,
  "tags": {
    "name": "龙桥社区",
    "place": "neighbourhood"
  }
},
{
  "type": "node",
  "id": 5285310883,
  "lat": 31.2530380,
  "lon": 120.6616723,
  "tags": {
    "name": "姜庄社区",
    "place": "neighbourhood"
  }
},
{
  "type": "node",
  "id": 5285965131,
  "lat": 31.2512128,
  "lon": 120.6581104,
  "tags": {
    "name": "国香园社区",
    "place": "neighbourhood"
  }
},
{
  "type": "node",
  "id": 5285965133,
  "lat": 31.2752957,
  "lon": 120.6547737,
  "tags": {
    "name": "姜家社区",
    "place": "neighbourhood"
  }
},
{
  "type": "node",
  "id": 5403148854,
  "lat": 31.2351786,
  "lon": 120.6228661,
  "tags": {
    "name": "玫瑰苑社区",
    "place": "neighbourhood"
  }
},
{
  "type": "node",
  "id": 5403148858,
  "lat": 31.2461772,
  "lon": 120.6313097,
  "tags": {
    "name": "桂苑社区",
    "place": "neighbourhood"
  }
},
{
  "type": "node",
  "id": 5403148859,
  "lat": 31.2495435,
  "lon": 120.6293785,
  "tags": {
    "name": "商贸城社区",
    "place": "neighbourhood"
  }
},
{
  "type": "node",
  "id": 5403148860,
  "lat": 31.2486400,
  "lon": 120.6225443,
  "tags": {
    "name": "阳光苑社区",
    "place": "neighbourhood"
  }
},
{
  "type": "node",
  "id": 5403148861,
  "lat": 31.2599167,
  "lon": 120.6374681,
  "tags": {
    "name": "南港社区",
    "place": "neighbourhood"
  }
},
{
  "type": "node",
  "id": 5403148862,
  "lat": 31.2592931,
  "lon": 120.6302905,
  "tags": {
    "name": "碧波社区",
    "place": "neighbourhood"
  }
},
{
  "type": "node",
  "id": 5403148865,
  "lat": 31.2392425,
  "lon": 120.6291211,
  "tags": {
    "name": "红庄社区",
    "place": "neighbourhood"
  }
},
{
  "type": "node",
  "id": 5403148866,
  "lat": 31.2525370,
  "lon": 120.6402801,
  "tags": {
    "name": "宝带桥社区",
    "place": "neighbourhood"
  }
},
{
  "type": "node",
  "id": 5403148867,
  "lat": 31.2538177,
  "lon": 120.6305265,
  "tags": {
    "name": "新江社区",
    "place": "neighbourhood"
  }
},
{
  "type": "node",
  "id": 5403148868,
  "lat": 31.2594673,
  "lon": 120.6227052,
  "tags": {
    "name": "龙南社区",
    "place": "neighbourhood"
  }
},
{
  "type": "node",
  "id": 5469475262,
  "lat": 31.2714351,
  "lon": 120.6636572,
  "tags": {
    "name": "通园路南",
    "name:en": "Tongyuanlu South",
    "name:zh-Hant": "通園路南",
    "public_transport": "station",
    "railway": "station",
    "station": "subway",
    "subway": "yes"
  }
},
{
  "type": "node",
  "id": 5865837683,
  "lat": 31.2824224,
  "lon": 120.6292123,
  "tags": {
    "bench": "yes",
    "bin": "yes",
    "bus": "yes",
    "highway": "bus_stop",
    "name": "南环新村（汽车南站西）",
    "public_transport": "platform",
    "shelter": "yes"
  }
},
{
  "type": "node",
  "id": 5865837684,
  "lat": 31.2826501,
  "lon": 120.6292004,
  "tags": {
    "bench": "yes",
    "bin": "yes",
    "bus": "yes",
    "highway": "bus_stop",
    "name": "南环新村",
    "public_transport": "platform",
    "shelter": "yes"
  }
},
{
  "type": "node",
  "id": 5865837985,
  "lat": 31.2822015,
  "lon": 120.6248031,
  "tags": {
    "bench": "yes",
    "bin": "yes",
    "bus": "yes",
    "highway": "bus_stop",
    "name": "团结桥东",
    "public_transport": "platform",
    "shelter": "yes"
  }
},
{
  "type": "node",
  "id": 5865837986,
  "lat": 31.2818448,
  "lon": 120.6237218,
  "tags": {
    "bench": "yes",
    "bin": "yes",
    "bus": "yes",
    "highway": "bus_stop",
    "name": "团结桥东",
    "public_transport": "platform",
    "shelter": "yes"
  }
},
{
  "type": "node",
  "id": 5865837987,
  "lat": 31.2817558,
  "lon": 120.6207311,
  "tags": {
    "bench": "yes",
    "bin": "yes",
    "bus": "yes",
    "highway": "bus_stop",
    "name": "团结桥西",
    "public_transport": "platform",
    "shelter": "yes"
  }
},
{
  "type": "node",
  "id": 5865837988,
  "lat": 31.2814986,
  "lon": 120.6206667,
  "tags": {
    "bench": "yes",
    "bin": "yes",
    "bus": "yes",
    "highway": "bus_stop",
    "name": "团结桥西",
    "public_transport": "platform",
    "shelter": "yes"
  }
},
{
  "type": "node",
  "id": 5865837989,
  "lat": 31.2810130,
  "lon": 120.6164780,
  "tags": {
    "bench": "yes",
    "bin": "yes",
    "bus": "yes",
    "highway": "bus_stop",
    "name": "大龙港新村",
    "public_transport": "platform",
    "shelter": "yes"
  }
},
{
  "type": "node",
  "id": 5865837990,
  "lat": 31.2812194,
  "lon": 120.6162028,
  "tags": {
    "bench": "yes",
    "bin": "yes",
    "bus": "yes",
    "highway": "bus_stop",
    "name": "大龙港新村",
    "public_transport": "platform",
    "shelter": "yes"
  }
},
{
  "type": "node",
  "id": 5865837991,
  "lat": 31.2808466,
  "lon": 120.6129433,
  "tags": {
    "bench": "yes",
    "bin": "yes",
    "bus": "yes",
    "highway": "bus_stop",
    "name": "盘溪新村南",
    "public_transport": "platform",
    "shelter": "yes"
  }
},
{
  "type": "node",
  "id": 5865837992,
  "lat": 31.2805555,
  "lon": 120.6123506,
  "tags": {
    "bench": "yes",
    "bin": "yes",
    "bus": "yes",
    "highway": "bus_stop",
    "name": "盘溪新村南",
    "public_transport": "platform",
    "shelter": "yes"
  }
},
{
  "type": "node",
  "id": 5866058299,
  "lat": 31.2840024,
  "lon": 120.6477677,
  "tags": {
    "bench": "yes",
    "bus": "yes",
    "highway": "bus_stop",
    "name": "南环桥（华东装饰城）",
    "public_transport": "platform",
    "shelter": "yes"
  }
},
{
  "type": "node",
  "id": 5866058300,
  "lat": 31.2846804,
  "lon": 120.6472635,
  "tags": {
    "bus": "yes",
    "highway": "bus_stop",
    "name": "南环桥(华东装饰城)",
    "public_transport": "platform",
    "shelter": "yes"
  }
},
{
  "type": "node",
  "id": 5866058330,
  "lat": 31.2828764,
  "lon": 120.6355879,
  "tags": {
    "bench": "yes",
    "bin": "yes",
    "bus": "yes",
    "highway": "bus_stop",
    "name": "汽车南站东",
    "public_transport": "platform",
    "shelter": "yes"
  }
},
{
  "type": "node",
  "id": 5866058331,
  "lat": 31.2801260,
  "lon": 120.6341891,
  "tags": {
    "bench": "yes",
    "bin": "yes",
    "bus": "yes",
    "highway": "bus_stop",
    "name": "汽车南站",
    "public_transport": "platform",
    "shelter": "yes"
  }
},
{
  "type": "node",
  "id": 5866058332,
  "lat": 31.2799503,
  "lon": 120.6340913,
  "tags": {
    "bench": "yes",
    "bin": "yes",
    "bus": "yes",
    "highway": "bus_stop",
    "name": "汽车南站",
    "public_transport": "platform",
    "shelter": "yes"
  }
},
{
  "type": "node",
  "id": 5866058333,
  "lat": 31.2814438,
  "lon": 120.6330371,
  "tags": {
    "amenity": "bus_station",
    "bus": "yes",
    "highway": "bus_stop",
    "name": "汽车南站客运站",
    "public_transport": "platform"
  }
},
{
  "type": "node",
  "id": 5866058334,
  "lat": 31.2826403,
  "lon": 120.6331927,
  "tags": {
    "bench": "yes",
    "bin": "yes",
    "bus": "yes",
    "highway": "bus_stop",
    "name": "汽车南站广场",
    "public_transport": "platform",
    "shelter": "yes"
  }
},
{
  "type": "node",
  "id": 5866058349,
  "lat": 31.2820024,
  "lon": 120.6317980,
  "tags": {
    "amenity": "bus_station",
    "bus": "yes",
    "name": "汽车南站公交换乘枢纽",
    "public_transport": "station"
  }
},
{
  "type": "node",
  "id": 6898436238,
  "lat": 31.2436323,
  "lon": 120.6626838,
  "tags": {
    "name": "尹山",
    "public_transport": "station",
    "railway": "station",
    "station": "subway",
    "subway": "yes"
  }
},
{
  "type": "node",
  "id": 6898474858,
  "lat": 31.2811739,
  "lon": 120.6627606,
  "tags": {
    "name": "东兴路西",
    "public_transport": "station",
    "railway": "station",
    "station": "subway",
    "subway": "yes"
  }
},
{
  "type": "node",
  "id": 7089724373,
  "lat": 31.2693351,
  "lon": 120.6242717,
  "tags": {
    "name": "宝带路",
    "name:en": "Baodai Lu",
    "name:zh-Hant": "寶帶路",
    "public_transport": "station",
    "railway": "station",
    "station": "subway",
    "subway": "yes"
  }
},
{
  "type": "node",
  "id": 7099222588,
  "lat": 31.2454024,
  "lon": 120.6329771,
  "tags": {
    "name": "枫津路",
    "public_transport": "station",
    "railway": "station",
    "station": "subway",
    "subway": "yes"
  }
},
{
  "type": "node",
  "id": 7099222589,
  "lat": 31.2435708,
  "lon": 120.6417678,
  "tags": {
    "name": "金家桥南",
    "old_name": "澄湖东路",
    "public_transport": "station",
    "railway": "station",
    "station": "subway",
    "subway": "yes"
  }
},
{
  "type": "node",
  "id": 7401587918,
  "lat": 31.2833692,
  "lon": 120.6340532,
  "tags": {
    "bus": "yes",
    "highway": "bus_stop",
    "name": "汽车南站东",
    "public_transport": "platform",
    "shelter": "yes"
  }
},
{
  "type": "node",
  "id": 7401587919,
  "lat": 31.2832439,
  "lon": 120.6329102,
  "tags": {
    "bus": "yes",
    "highway": "bus_stop",
    "name": "汽车南站广场",
    "public_transport": "platform"
  }
},
{
  "type": "node",
  "id": 7401587927,
  "lat": 31.2822677,
  "lon": 120.6488115,
  "tags": {
    "bus": "yes",
    "highway": "bus_stop",
    "name": "华东装饰城",
    "public_transport": "platform"
  }
},
{
  "type": "node",
  "id": 7413474839,
  "lat": 31.2765203,
  "lon": 120.6232459,
  "tags": {
    "bus": "yes",
    "highway": "bus_stop",
    "name": "南门二村",
    "public_transport": "platform"
  }
},
{
  "type": "node",
  "id": 7413474840,
  "lat": 31.2717685,
  "lon": 120.6238241,
  "tags": {
    "bus": "yes",
    "highway": "bus_stop",
    "name": "吴中区人民医院",
    "public_transport": "platform"
  }
},
{
  "type": "node",
  "id": 7413474841,
  "lat": 31.2678466,
  "lon": 120.6244450,
  "tags": {
    "bus": "yes",
    "highway": "bus_stop",
    "name": "宝带路",
    "public_transport": "platform"
  }
},
{
  "type": "node",
  "id": 7413474842,
  "lat": 31.2655472,
  "lon": 120.6247320,
  "tags": {
    "bus": "yes",
    "highway": "bus_stop",
    "name": "东吴塔",
    "public_transport": "platform"
  }
},
{
  "type": "node",
  "id": 7413474843,
  "lat": 31.2573177,
  "lon": 120.6252726,
  "tags": {
    "bus": "yes",
    "highway": "bus_stop",
    "name": "吴中商城",
    "public_transport": "platform"
  }
},
{
  "type": "node",
  "id": 7413474844,
  "lat": 31.2531156,
  "lon": 120.6253529,
  "tags": {
    "bus": "yes",
    "highway": "bus_stop",
    "name": "石湖东路",
    "public_transport": "platform"
  }
},
{
  "type": "node",
  "id": 7413474845,
  "lat": 31.2509359,
  "lon": 120.6274475,
  "tags": {
    "bus": "yes",
    "highway": "bus_stop",
    "name": "吴中汽车站南",
    "public_transport": "platform"
  }
},
{
  "type": "node",
  "id": 7413474846,
  "lat": 31.2509214,
  "lon": 120.6303412,
  "tags": {
    "bus": "yes",
    "highway": "bus_stop",
    "name": "枫津路",
    "public_transport": "platform"
  }
},
{
  "type": "node",
  "id": 7413474847,
  "lat": 31.2530563,
  "lon": 120.6324503,
  "tags": {
    "bus": "yes",
    "highway": "bus_stop",
    "name": "枫津路石湖路南",
    "public_transport": "platform"
  }
},
{
  "type": "node",
  "id": 7413474848,
  "lat": 31.2559344,
  "lon": 120.6322785,
  "tags": {
    "bus": "yes",
    "highway": "bus_stop",
    "name": "公交一路新村",
    "public_transport": "platform"
  }
},
{
  "type": "node",
  "id": 7413474853,
  "lat": 31.2570836,
  "lon": 120.6323774,
  "tags": {
    "amenity": "bus_station",
    "bus": "yes",
    "name": "公交一路新村首末站",
    "public_transport": "station"
  }
},
{
  "type": "node",
  "id": 7413474854,
  "lat": 31.2535628,
  "lon": 120.6321793,
  "tags": {
    "bus": "yes",
    "highway": "bus_stop",
    "name": "枫津路石湖路南",
    "public_transport": "platform"
  }
},
{
  "type": "node",
  "id": 7413474855,
  "lat": 31.2511071,
  "lon": 120.6310419,
  "tags": {
    "bus": "yes",
    "highway": "bus_stop",
    "name": "枫津路",
    "public_transport": "platform"
  }
},
{
  "type": "node",
  "id": 7413474856,
  "lat": 31.2511343,
  "lon": 120.6275431,
  "tags": {
    "bus": "yes",
    "highway": "bus_stop",
    "name": "吴中汽车站南",
    "public_transport": "platform"
  }
},
{
  "type": "node",
  "id": 7413474857,
  "lat": 31.2535366,
  "lon": 120.6255880,
  "tags": {
    "bus": "yes",
    "highway": "bus_stop",
    "name": "石湖东路",
    "public_transport": "platform"
  }
},
{
  "type": "node",
  "id": 7413474858,
  "lat": 31.2581239,
  "lon": 120.6255121,
  "tags": {
    "bus": "yes",
    "highway": "bus_stop",
    "name": "吴中商城",
    "public_transport": "platform"
  }
},
{
  "type": "node",
  "id": 7413474859,
  "lat": 31.2669530,
  "lon": 120.6248660,
  "tags": {
    "bus": "yes",
    "highway": "bus_stop",
    "name": "宝带路",
    "public_transport": "platform"
  }
},
{
  "type": "node",
  "id": 7413474860,
  "lat": 31.2705806,
  "lon": 120.6242607,
  "tags": {
    "bus": "yes",
    "highway": "bus_stop",
    "name": "吴中区人民医院",
    "public_transport": "platform"
  }
},
{
  "type": "node",
  "id": 7413474861,
  "lat": 31.2756373,
  "lon": 120.6236629,
  "tags": {
    "bus": "yes",
    "highway": "bus_stop",
    "name": "南门二村",
    "public_transport": "platform"
  }
},
{
  "type": "node",
  "id": 7413474862,
  "lat": 31.2782359,
  "lon": 120.6231628,
  "tags": {
    "bus": "yes",
    "highway": "bus_stop",
    "name": "团结桥",
    "public_transport": "platform"
  }
},
{
  "type": "node",
  "id": 7440438942,
  "lat": 31.2813537,
  "lon": 120.6339594,
  "tags": {
    "bus": "yes",
    "highway": "bus_stop",
    "name": "汽车南站②",
    "public_transport": "platform"
  }
},
{
  "type": "node",
  "id": 7440438943,
  "lat": 31.2697864,
  "lon": 120.6390391,
  "tags": {
    "bus": "yes",
    "highway": "bus_stop",
    "name": "嘉宝花园",
    "public_transport": "platform"
  }
},
{
  "type": "node",
  "id": 7440438944,
  "lat": 31.2679356,
  "lon": 120.6583535,
  "tags": {
    "amenity": "bus_station",
    "bus": "yes",
    "name": "东方大道(古玩城)首末站",
    "public_transport": "station"
  }
},
{
  "type": "node",
  "id": 7440438945,
  "lat": 31.2650675,
  "lon": 120.6433505,
  "tags": {
    "bus": "yes",
    "highway": "bus_stop",
    "name": "太湖东路丹桂路",
    "public_transport": "platform"
  }
},
{
  "type": "node",
  "id": 7440438946,
  "lat": 31.2657613,
  "lon": 120.6569266,
  "tags": {
    "bus": "yes",
    "highway": "bus_stop",
    "name": "好得家装饰城",
    "public_transport": "platform"
  }
},
{
  "type": "node",
  "id": 7440438948,
  "lat": 31.2663712,
  "lon": 120.6568331,
  "tags": {
    "bus": "yes",
    "highway": "bus_stop",
    "name": "好得家装饰城",
    "public_transport": "platform"
  }
},
{
  "type": "node",
  "id": 7440438949,
  "lat": 31.2715306,
  "lon": 120.6350814,
  "tags": {
    "bench": "yes",
    "bus": "yes",
    "highway": "bus_stop",
    "name": "迎春路宝带东路北",
    "public_transport": "platform"
  }
},
{
  "type": "node",
  "id": 7441192060,
  "lat": 31.2835182,
  "lon": 120.6623281,
  "tags": {
    "bus": "yes",
    "highway": "bus_stop",
    "name": "群星苑一区东",
    "public_transport": "platform"
  }
},
{
  "type": "node",
  "id": 7441192061,
  "lat": 31.2803898,
  "lon": 120.6625384,
  "tags": {
    "bus": "yes",
    "highway": "bus_stop",
    "name": "群星路",
    "public_transport": "platform"
  }
},
{
  "type": "node",
  "id": 7441192062,
  "lat": 31.2756328,
  "lon": 120.6632560,
  "tags": {
    "bus": "yes",
    "highway": "bus_stop",
    "name": "群星一路",
    "public_transport": "platform"
  }
},
{
  "type": "node",
  "id": 7441192063,
  "lat": 31.2724820,
  "lon": 120.6638729,
  "tags": {
    "bus": "yes",
    "highway": "bus_stop",
    "name": "群星二路",
    "public_transport": "platform"
  }
},
{
  "type": "node",
  "id": 7441192064,
  "lat": 31.2675513,
  "lon": 120.6648275,
  "tags": {
    "bus": "yes",
    "highway": "bus_stop",
    "name": "群星三路",
    "public_transport": "platform"
  }
},
{
  "type": "node",
  "id": 7441198587,
  "lat": 31.2685961,
  "lon": 120.6648881,
  "tags": {
    "bus": "yes",
    "highway": "bus_stop",
    "name": "群星三路",
    "public_transport": "platform"
  }
},
{
  "type": "node",
  "id": 7441198588,
  "lat": 31.2727493,
  "lon": 120.6641181,
  "tags": {
    "bus": "yes",
    "highway": "bus_stop",
    "name": "群星二路",
    "public_transport": "platform"
  }
},
{
  "type": "node",
  "id": 7441198589,
  "lat": 31.2757482,
  "lon": 120.6634721,
  "tags": {
    "bus": "yes",
    "highway": "bus_stop",
    "name": "群星一路",
    "public_transport": "platform"
  }
},
{
  "type": "node",
  "id": 7441198590,
  "lat": 31.2804000,
  "lon": 120.6627960,
  "tags": {
    "bus": "yes",
    "highway": "bus_stop",
    "name": "群星路",
    "public_transport": "platform"
  }
},
{
  "type": "node",
  "id": 7441198591,
  "lat": 31.2843746,
  "lon": 120.6623826,
  "tags": {
    "bus": "yes",
    "highway": "bus_stop",
    "name": "群星苑一区东",
    "public_transport": "platform"
  }
},
{
  "type": "node",
  "id": 7443852796,
  "lat": 31.2801940,
  "lon": 120.6492249,
  "tags": {
    "bus": "yes",
    "highway": "bus_stop",
    "name": "杏秀桥首末站",
    "public_transport": "platform"
  }
},
{
  "type": "node",
  "id": 7443852797,
  "lat": 31.2797002,
  "lon": 120.6499404,
  "tags": {
    "bus": "yes",
    "highway": "bus_stop",
    "name": "杏秀桥",
    "public_transport": "platform"
  }
},
{
  "type": "node",
  "id": 7443852805,
  "lat": 31.2800838,
  "lon": 120.6531390,
  "tags": {
    "bus": "yes",
    "highway": "bus_stop",
    "name": "群星苑三区",
    "public_transport": "platform"
  }
},
{
  "type": "node",
  "id": 7443852806,
  "lat": 31.2804139,
  "lon": 120.6535961,
  "tags": {
    "bus": "yes",
    "highway": "bus_stop",
    "name": "群星苑三区",
    "public_transport": "platform"
  }
},
{
  "type": "node",
  "id": 7443852807,
  "lat": 31.2808908,
  "lon": 120.6575051,
  "tags": {
    "bus": "yes",
    "highway": "bus_stop",
    "name": "文萃小学",
    "public_transport": "platform"
  }
},
{
  "type": "node",
  "id": 7443852808,
  "lat": 31.2808842,
  "lon": 120.6597668,
  "tags": {
    "bus": "yes",
    "highway": "bus_stop",
    "name": "文萃小学",
    "public_transport": "platform"
  }
},
{
  "type": "node",
  "id": 7447887061,
  "lat": 31.2746687,
  "lon": 120.6330454,
  "tags": {
    "bus": "yes",
    "highway": "bus_stop",
    "name": "月浜街",
    "public_transport": "platform"
  }
},
{
  "type": "node",
  "id": 7447887062,
  "lat": 31.2744301,
  "lon": 120.6271517,
  "tags": {
    "bus": "yes",
    "highway": "bus_stop",
    "name": "东苑路",
    "public_transport": "platform"
  }
},
{
  "type": "node",
  "id": 7447887077,
  "lat": 31.2742540,
  "lon": 120.6261998,
  "tags": {
    "bus": "yes",
    "highway": "bus_stop",
    "name": "东苑路",
    "public_transport": "platform"
  }
},
{
  "type": "node",
  "id": 7447887078,
  "lat": 31.2744711,
  "lon": 120.6324818,
  "tags": {
    "bus": "yes",
    "highway": "bus_stop",
    "name": "月浜街",
    "public_transport": "platform"
  }
},
{
  "type": "node",
  "id": 7503205988,
  "lat": 31.2668136,
  "lon": 120.6358058,
  "tags": {
    "bus": "yes",
    "highway": "bus_stop",
    "name": "文曲路",
    "public_transport": "platform"
  }
},
{
  "type": "node",
  "id": 7503205992,
  "lat": 31.2665760,
  "lon": 120.6356965,
  "tags": {
    "bus": "yes",
    "highway": "bus_stop",
    "name": "文曲路",
    "public_transport": "platform"
  }
},
{
  "type": "node",
  "id": 8711141079,
  "lat": 31.2528886,
  "lon": 120.6354946,
  "tags": {
    "name": "泰盛绿岛一期",
    "place": "neighbourhood"
  }
},
{
  "type": "node",
  "id": 10120115430,
  "lat": 31.2635548,
  "lon": 120.6505396,
  "tags": {
    "leisure": "park",
    "name": "宝带桥公园"
  }
},
{
  "type": "node",
  "id": 10753436625,
  "lat": 31.2358906,
  "lon": 120.6649780,
  "tags": {
    "highway": "motorway_junction",
    "name": "吴东快速路/姑苏区/吴江区"
  }
},
{
  "type": "node",
  "id": 11049376089,
  "lat": 31.2500319,
  "lon": 120.6398767,
  "tags": {
    "name": "适新科技",
    "public_transport": "platform"
  }
},
{
  "type": "node",
  "id": 11049376090,
  "lat": 31.2511349,
  "lon": 120.6393939,
  "tags": {
    "name": "适新科技",
    "public_transport": "platform"
  }
},
{
  "type": "node",
  "id": 11049376100,
  "lat": 31.2519466,
  "lon": 120.6437471,
  "tags": {
    "name": "宝带桥南",
    "public_transport": "platform"
  }
},
{
  "type": "node",
  "id": 11049376101,
  "lat": 31.2523171,
  "lon": 120.6435408,
  "tags": {
    "name": "宝带桥南",
    "public_transport": "platform"
  }
},
{
  "type": "node",
  "id": 11049403210,
  "lat": 31.2523226,
  "lon": 120.6440234,
  "tags": {
    "level": "0",
    "name": "4",
    "railway": "subway_entrance",
    "ref": "4"
  }
},
{
  "type": "node",
  "id": 11049403211,
  "lat": 31.2524923,
  "lon": 120.6450346,
  "tags": {
    "level": "0",
    "name": "3",
    "railway": "subway_entrance",
    "ref": "3"
  }
},
{
  "type": "node",
  "id": 11049403212,
  "lat": 31.2516921,
  "lon": 120.6451312,
  "tags": {
    "name": "2",
    "railway": "subway_entrance",
    "ref": "0"
  }
},
{
  "type": "node",
  "id": 11049403213,
  "lat": 31.2522515,
  "lon": 120.6605431,
  "tags": {
    "level": "0",
    "name": "3",
    "railway": "subway_entrance",
    "ref": "3"
  }
},
{
  "type": "node",
  "id": 11049403214,
  "lat": 31.2513504,
  "lon": 120.6604815,
  "tags": {
    "level": "0",
    "name": "2",
    "railway": "subway_entrance",
    "ref": "2"
  }
},
{
  "type": "node",
  "id": 11049403215,
  "lat": 31.2523639,
  "lon": 120.6593925,
  "tags": {
    "level": "0",
    "name": "4",
    "railway": "subway_entrance",
    "ref": "4",
    "wheelchair": "yes"
  }
},
{
  "type": "node",
  "id": 11456204256,
  "lat": 31.2715157,
  "lon": 120.6636482,
  "tags": {
    "name": "通园路南",
    "name:en": "Tongyuanlu South",
    "name:zh-Hant": "通園路南",
    "public_transport": "stop_position",
    "railway": "stop",
    "subway": "yes"
  }
},
{
  "type": "node",
  "id": 11456204268,
  "lat": 31.2721075,
  "lon": 120.6526547,
  "tags": {
    "name": "北港路",
    "name:en": "Beiganglu",
    "public_transport": "stop_position",
    "railway": "stop",
    "subway": "yes"
  }
},
{
  "type": "node",
  "id": 11456216254,
  "lat": 31.2713545,
  "lon": 120.6636662,
  "tags": {
    "name": "通园路南",
    "name:en": "Tongyuanlu South",
    "name:zh-Hant": "通園路南",
    "public_transport": "stop_position",
    "railway": "stop",
    "subway": "yes"
  }
},
{
  "type": "node",
  "id": 11456216266,
  "lat": 31.2719457,
  "lon": 120.6526549,
  "tags": {
    "name": "北港路",
    "name:en": "Beiganglu",
    "public_transport": "stop_position",
    "railway": "stop",
    "subway": "yes"
  }
},
{
  "type": "node",
  "id": 11456216297,
  "lat": 31.2698027,
  "lon": 120.6361953,
  "tags": {
    "name": "迎春路",
    "name:en": "Yingchunlu",
    "public_transport": "stop_position",
    "railway": "stop",
    "subway": "yes",
    "wheelchair": "yes"
  }
},
{
  "type": "node",
  "id": 11456216319,
  "lat": 31.2692543,
  "lon": 120.6242764,
  "tags": {
    "name": "宝带路",
    "name:en": "Baodai Lu",
    "name:zh-Hant": "寶帶路",
    "public_transport": "stop_position",
    "railway": "stop",
    "subway": "yes"
  }
},
{
  "type": "node",
  "id": 11456216899,
  "lat": 31.2699645,
  "lon": 120.6361969,
  "tags": {
    "name": "迎春路",
    "name:en": "Yingchunlu",
    "public_transport": "stop_position",
    "railway": "stop",
    "subway": "yes",
    "wheelchair": "yes"
  }
},
{
  "type": "node",
  "id": 11456216921,
  "lat": 31.2694159,
  "lon": 120.6242670,
  "tags": {
    "name": "宝带路",
    "name:en": "Baodai Lu",
    "name:zh-Hant": "寶帶路",
    "public_transport": "stop_position",
    "railway": "stop",
    "subway": "yes"
  }
},
{
  "type": "node",
  "id": 11736754962,
  "lat": 31.2839337,
  "lon": 120.6222468,
  "tags": {
    "brand": "全家",
    "brand:en": "FamilyMart",
    "brand:wikidata": "Q1191685",
    "brand:zh": "全家",
    "name": "全家",
    "name:en": "FamilyMart",
    "name:zh": "全家",
    "shop": "convenience"
  }
},
{
  "type": "node",
  "id": 11736754963,
  "lat": 31.2838237,
  "lon": 120.6216566,
  "tags": {
    "amenity": "restaurant",
    "name": "苏好婆面馆(人民路店)"
  }
},
{
  "type": "node",
  "id": 11773074552,
  "lat": 31.2584149,
  "lon": 120.6104395,
  "tags": {
    "level": "0",
    "name": "5",
    "railway": "subway_entrance",
    "ref": "5"
  }
},
{
  "type": "node",
  "id": 11773074553,
  "lat": 31.2578532,
  "lon": 120.6104824,
  "tags": {
    "level": "0",
    "name": "1",
    "railway": "subway_entrance",
    "ref": "1"
  }
},
{
  "type": "node",
  "id": 11773074554,
  "lat": 31.2579724,
  "lon": 120.6112871,
  "tags": {
    "level": "0",
    "name": "2",
    "railway": "subway_entrance",
    "ref": "2"
  }
},
{
  "type": "node",
  "id": 11773074555,
  "lat": 31.2585364,
  "lon": 120.6112897,
  "tags": {
    "level": "0",
    "name": "3",
    "railway": "subway_entrance",
    "ref": "3"
  }
},
{
  "type": "node",
  "id": 11773074602,
  "lat": 31.2544780,
  "lon": 120.6252265,
  "tags": {
    "level": "0",
    "name": "1",
    "railway": "subway_entrance",
    "ref": "1"
  }
},
{
  "type": "node",
  "id": 11773074604,
  "lat": 31.2561817,
  "lon": 120.6250629,
  "tags": {
    "level": "0",
    "name": "6",
    "railway": "subway_entrance"
  }
},
{
  "type": "node",
  "id": 11773074605,
  "lat": 31.2562734,
  "lon": 120.6256087,
  "tags": {
    "level": "0",
    "name": "5",
    "railway": "subway_entrance"
  }
},
{
  "type": "node",
  "id": 11773074606,
  "lat": 31.2551900,
  "lon": 120.6263289,
  "tags": {
    "level": "0",
    "name": "3",
    "railway": "subway_entrance",
    "ref": "3"
  }
},
{
  "type": "node",
  "id": 11773074607,
  "lat": 31.2545216,
  "lon": 120.6258434,
  "tags": {
    "level": "0",
    "name": "2",
    "railway": "subway_entrance",
    "ref": "2"
  }
},
{
  "type": "node",
  "id": 11950084551,
  "lat": 31.2574787,
  "lon": 120.6280517,
  "tags": {
    "amenity": "restaurant",
    "name": "鑫花溪牛肉米粉"
  }
},
{
  "type": "node",
  "id": 11950084568,
  "lat": 31.2568295,
  "lon": 120.6285284,
  "tags": {
    "amenity": "cafe",
    "brand": "茶百道",
    "brand:en": "chabaidao",
    "brand:wikidata": "Q108165952",
    "brand:zh": "茶百道",
    "cuisine": "bubble_tea",
    "name": "茶百道",
    "name:en": "chabaidao",
    "name:zh": "茶百道",
    "takeaway": "yes"
  }
},
{
  "type": "node",
  "id": 11950128169,
  "lat": 31.2568437,
  "lon": 120.6286377,
  "tags": {
    "amenity": "cafe",
    "brand": "蜜雪冰城",
    "brand:en": "MIXUEBINGCHENG",
    "brand:wikidata": "Q107406476",
    "brand:zh": "蜜雪冰城",
    "cuisine": "ice_cream;bubble_tea",
    "name": "蜜雪冰城",
    "name:en": "MIXUEBINGCHENG",
    "name:zh": "蜜雪冰城",
    "takeaway": "yes"
  }
},
{
  "type": "node",
  "id": 12299822844,
  "lat": 31.2692875,
  "lon": 120.6242094,
  "tags": {
    "name": "宝带路",
    "name:en": "Baodai Lu",
    "name:zh-Hant": "寶帶路",
    "public_transport": "stop_position",
    "railway": "stop",
    "subway": "yes"
  }
},
{
  "type": "node",
  "id": 12299822850,
  "lat": 31.2786306,
  "lon": 120.6229018,
  "tags": {
    "name": "团结桥",
    "name:en": "Tuanjie Qiao",
    "public_transport": "stop_position",
    "railway": "stop",
    "subway": "yes"
  }
},
{
  "type": "node",
  "id": 12299822971,
  "lat": 31.2693059,
  "lon": 120.6243762,
  "tags": {
    "name": "宝带路",
    "name:en": "Baodai Lu",
    "name:zh-Hant": "寶帶路",
    "public_transport": "stop_position",
    "railway": "stop",
    "subway": "yes"
  }
},
{
  "type": "node",
  "id": 12299822977,
  "lat": 31.2786522,
  "lon": 120.6230680,
  "tags": {
    "name": "团结桥",
    "name:en": "Tuanjie Qiao",
    "public_transport": "stop_position",
    "railway": "stop",
    "subway": "yes"
  }
},
{
  "type": "node",
  "id": 12299823043,
  "lat": 31.2400891,
  "lon": 120.6251388,
  "tags": {
    "name": "红庄",
    "name:en": "Hongzhuang",
    "public_transport": "stop_position",
    "railway": "stop",
    "subway": "yes"
  }
},
{
  "type": "node",
  "id": 12299823045,
  "lat": 31.2400606,
  "lon": 120.6252547,
  "tags": {
    "name": "红庄",
    "name:en": "Hongzhuang",
    "public_transport": "stop_position",
    "subway": "yes"
  }
},
{
  "type": "node",
  "id": 12299823433,
  "lat": 31.2811803,
  "lon": 120.6628253,
  "tags": {
    "name": "东兴路西",
    "public_transport": "stop_position",
    "railway": "stop",
    "subway": "yes"
  }
},
{
  "type": "node",
  "id": 12299823434,
  "lat": 31.2715375,
  "lon": 120.6644521,
  "tags": {
    "name": "通园路南",
    "public_transport": "stop_position",
    "railway": "stop",
    "subway": "yes"
  }
},
{
  "type": "node",
  "id": 12299823464,
  "lat": 31.2435637,
  "lon": 120.6627087,
  "tags": {
    "name": "尹山",
    "public_transport": "stop_position",
    "railway": "stop",
    "subway": "yes"
  }
},
{
  "type": "node",
  "id": 12299823480,
  "lat": 31.2435184,
  "lon": 120.6417576,
  "tags": {
    "name": "金家桥南",
    "old_name": "澄湖东路",
    "public_transport": "stop_position",
    "railway": "stop",
    "subway": "yes"
  }
},
{
  "type": "node",
  "id": 12299823491,
  "lat": 31.2453309,
  "lon": 120.6329686,
  "tags": {
    "name": "枫津路",
    "public_transport": "stop_position",
    "railway": "stop",
    "subway": "yes"
  }
},
{
  "type": "node",
  "id": 12299823644,
  "lat": 31.2811652,
  "lon": 120.6626771,
  "tags": {
    "name": "东兴路西",
    "public_transport": "stop_position",
    "railway": "stop",
    "subway": "yes"
  }
},
{
  "type": "node",
  "id": 12299823645,
  "lat": 31.2715193,
  "lon": 120.6642952,
  "tags": {
    "name": "通园路南",
    "public_transport": "stop_position",
    "railway": "stop",
    "subway": "yes"
  }
},
{
  "type": "node",
  "id": 12299823675,
  "lat": 31.2437009,
  "lon": 120.6626589,
  "tags": {
    "name": "尹山",
    "public_transport": "stop_position",
    "railway": "stop",
    "subway": "yes"
  }
},
{
  "type": "node",
  "id": 12299823691,
  "lat": 31.2436450,
  "lon": 120.6417417,
  "tags": {
    "name": "金家桥南",
    "old_name": "澄湖东路",
    "public_transport": "stop_position",
    "railway": "stop",
    "subway": "yes"
  }
},
{
  "type": "node",
  "id": 12299823702,
  "lat": 31.2454739,
  "lon": 120.6329856,
  "tags": {
    "name": "枫津路",
    "public_transport": "stop_position",
    "railway": "stop",
    "subway": "yes"
  }
},
{
  "type": "node",
  "id": 12299823754,
  "lat": 31.2401472,
  "lon": 120.6249389,
  "tags": {
    "name": "红庄",
    "name:en": "Hongzhuang",
    "public_transport": "stop_position",
    "railway": "stop",
    "subway": "yes"
  }
},
{
  "type": "node",
  "id": 12299823758,
  "lat": 31.2555313,
  "lon": 120.6253256,
  "tags": {
    "name": "石湖东路",
    "name:en": "Shihu Donglu",
    "public_transport": "stop_position",
    "railway": "stop",
    "subway": "yes"
  }
},
{
  "type": "node",
  "id": 12299824049,
  "lat": 31.2400372,
  "lon": 120.6254646,
  "tags": {
    "name": "红庄",
    "name:en": "Hongzhuang",
    "public_transport": "stop_position",
    "railway": "stop",
    "subway": "yes"
  }
},
{
  "type": "node",
  "id": 12299824053,
  "lat": 31.2555341,
  "lon": 120.6254936,
  "tags": {
    "name": "石湖东路",
    "name:en": "Shihu Donglu",
    "public_transport": "stop_position",
    "railway": "stop",
    "subway": "yes"
  }
},
{
  "type": "node",
  "id": 12389562867,
  "lat": 31.2715284,
  "lon": 120.6643737,
  "tags": {
    "name": "通园路南",
    "public_transport": "station",
    "railway": "station",
    "station": "subway",
    "subway": "yes"
  }
},
{
  "type": "node",
  "id": 12685137092,
  "lat": 31.2375821,
  "lon": 120.6636116,
  "tags": {
    "bus": "yes",
    "highway": "bus_stop",
    "name": "尹中桥",
    "public_transport": "platform"
  }
},
{
  "type": "node",
  "id": 12685137093,
  "lat": 31.2377610,
  "lon": 120.6638074,
  "tags": {
    "bus": "yes",
    "highway": "bus_stop",
    "name": "尹中桥",
    "public_transport": "platform"
  }
},
{
  "type": "node",
  "id": 12685137094,
  "lat": 31.2396576,
  "lon": 120.6630939,
  "tags": {
    "bus": "yes",
    "highway": "bus_stop",
    "name": "章后底",
    "public_transport": "platform"
  }
},
{
  "type": "node",
  "id": 12685137095,
  "lat": 31.2397310,
  "lon": 120.6633139,
  "tags": {
    "bus": "yes",
    "highway": "bus_stop",
    "name": "章后底",
    "public_transport": "platform"
  }
},
{
  "type": "node",
  "id": 12945121740,
  "lat": 31.2714070,
  "lon": 120.6272603,
  "tags": {
    "amenity": "parking",
    "name": "全季酒店(苏州宝带路地铁站店)停车场"
  }
},
{
  "type": "node",
  "id": 13009289110,
  "lat": 31.2815029,
  "lon": 120.6344966,
  "tags": {
    "brand": "BMW",
    "brand:wikidata": "Q26678",
    "name": "BMW",
    "shop": "car"
  }
},
{
  "type": "node",
  "id": 13080872731,
  "lat": 31.2573743,
  "lon": 120.6372188,
  "tags": {
    "bus": "yes",
    "highway": "bus_stop",
    "name": "澹台湖大桥",
    "public_transport": "platform"
  }
},
{
  "type": "node",
  "id": 13080872732,
  "lat": 31.2574909,
  "lon": 120.6372908,
  "tags": {
    "bus": "yes",
    "highway": "bus_stop",
    "name": "澹台湖大桥",
    "public_transport": "platform"
  }
},
{
  "type": "node",
  "id": 13080872733,
  "lat": 31.2506992,
  "lon": 120.6395551,
  "tags": {
    "bus": "yes",
    "highway": "bus_stop",
    "name": "适新科技",
    "public_transport": "platform"
  }
},
{
  "type": "node",
  "id": 13080872734,
  "lat": 31.2502511,
  "lon": 120.6397357,
  "tags": {
    "bus": "yes",
    "highway": "bus_stop",
    "name": "适新科技",
    "public_transport": "platform"
  }
},
{
  "type": "node",
  "id": 13080872735,
  "lat": 31.2444643,
  "lon": 120.6408491,
  "tags": {
    "bus": "yes",
    "highway": "bus_stop",
    "name": "澄湖中路",
    "public_transport": "platform"
  }
},
{
  "type": "node",
  "id": 13080872736,
  "lat": 31.2442843,
  "lon": 120.6409666,
  "tags": {
    "bus": "yes",
    "highway": "bus_stop",
    "name": "澄湖中路",
    "public_transport": "platform"
  }
},
{
  "type": "node",
  "id": 13080872737,
  "lat": 31.2426776,
  "lon": 120.6412179,
  "tags": {
    "bus": "yes",
    "highway": "bus_stop",
    "name": "金家桥南",
    "public_transport": "platform"
  }
},
{
  "type": "node",
  "id": 13080872738,
  "lat": 31.2428979,
  "lon": 120.6412503,
  "tags": {
    "bus": "yes",
    "highway": "bus_stop",
    "name": "金家桥南",
    "public_transport": "platform"
  }
},
{
  "type": "node",
  "id": 13080872739,
  "lat": 31.2363288,
  "lon": 120.6421415,
  "tags": {
    "bus": "yes",
    "highway": "bus_stop",
    "name": "尹西工业大厦",
    "public_transport": "platform"
  }
},
{
  "type": "node",
  "id": 13080872740,
  "lat": 31.2365322,
  "lon": 120.6422218,
  "tags": {
    "bus": "yes",
    "highway": "bus_stop",
    "name": "尹西工业大厦",
    "public_transport": "platform"
  }
},
{
  "type": "node",
  "id": 13081535299,
  "lat": 31.2835733,
  "lon": 120.6466246,
  "tags": {
    "bus": "yes",
    "highway": "bus_stop",
    "name": "东南环立交换乘枢纽站",
    "public_transport": "platform"
  }
},
{
  "type": "node",
  "id": 13081553457,
  "lat": 31.2812994,
  "lon": 120.6609765,
  "tags": {
    "bus": "yes",
    "highway": "bus_stop",
    "name": "群力",
    "public_transport": "platform"
  }
},
{
  "type": "node",
  "id": 13081553458,
  "lat": 31.2799087,
  "lon": 120.6499061,
  "tags": {
    "bus": "yes",
    "highway": "bus_stop",
    "name": "杏秀桥",
    "public_transport": "platform"
  }
},
{
  "type": "node",
  "id": 13084127955,
  "lat": 31.2657007,
  "lon": 120.6632308,
  "tags": {
    "name": "苏州工业园区新惠巴士有限公司",
    "office": "company"
  }
},
{
  "type": "node",
  "id": 13604490678,
  "lat": 31.2549484,
  "lon": 120.6254048,
  "tags": {
    "name": "石湖东路",
    "public_transport": "stop_position",
    "railway": "stop",
    "subway": "yes"
  }
},
{
  "type": "node",
  "id": 13604529904,
  "lat": 31.2519821,
  "lon": 120.6439484,
  "tags": {
    "name": "宝带桥南",
    "public_transport": "stop_position",
    "railway": "stop",
    "subway": "yes"
  }
},
{
  "type": "node",
  "id": 13604529931,
  "lat": 31.2519052,
  "lon": 120.6597043,
  "tags": {
    "name": "尹中路",
    "public_transport": "stop_position",
    "railway": "stop",
    "subway": "yes"
  }
},
{
  "type": "node",
  "id": 13604529932,
  "lat": 31.2520689,
  "lon": 120.6597255,
  "tags": {
    "name": "尹中路",
    "public_transport": "stop_position",
    "railway": "stop",
    "subway": "yes"
  }
},
{
  "type": "node",
  "id": 13604529978,
  "lat": 31.2688937,
  "lon": 120.6103100,
  "tags": {
    "name": "盘蠡路",
    "name:en": "Panlilu",
    "name:zh-Hant": "盤蠡路",
    "public_transport": "stop_position",
    "railway": "stop",
    "subway": "yes"
  }
},
{
  "type": "node",
  "id": 13604529979,
  "lat": 31.2688983,
  "lon": 120.6104441,
  "tags": {
    "name": "盘蠡路",
    "name:en": "Panlilu",
    "name:zh-Hant": "盤蠡路",
    "public_transport": "stop_position",
    "railway": "stop",
    "subway": "yes"
  }
},
{
  "type": "node",
  "id": 13604530004,
  "lat": 31.2584718,
  "lon": 120.6105305,
  "tags": {
    "name": "新家桥",
    "public_transport": "stop_position",
    "railway": "stop",
    "subway": "yes"
  }
},
{
  "type": "node",
  "id": 13604530005,
  "lat": 31.2584922,
  "lon": 120.6106997,
  "tags": {
    "name": "新家桥",
    "public_transport": "stop_position",
    "railway": "stop",
    "subway": "yes"
  }
},
{
  "type": "node",
  "id": 13604530012,
  "lat": 31.2552128,
  "lon": 120.6246079,
  "tags": {
    "level": "0",
    "name": "4",
    "railway": "subway_entrance",
    "ref": "2"
  }
},
{
  "type": "node",
  "id": 13604530013,
  "lat": 31.2550614,
  "lon": 120.6254108,
  "tags": {
    "name": "石湖东路",
    "public_transport": "stop_position",
    "railway": "stop",
    "subway": "yes"
  }
},
{
  "type": "node",
  "id": 13608713634,
  "lat": 31.2520913,
  "lon": 120.6439524,
  "tags": {
    "name": "宝带桥南",
    "public_transport": "stop_position",
    "railway": "stop",
    "subway": "yes"
  }
},
{
  "type": "way",
  "id": 109398302,
  "center": {
    "lat": 31.2687813,
    "lon": 120.6508821
  },
  "tags": {
    "bridge": "viaduct",
    "highway": "trunk",
    "layer": "2",
    "motorroad": "yes",
    "name": "吴东快速路",
    "name:en": "Wudong Expressway",
    "oneway": "yes",
    "ref": "G524"
  }
},
{
  "type": "way",
  "id": 109402027,
  "center": {
    "lat": 31.3051613,
    "lon": 120.6525493
  },
  "tags": {
    "bridge": "yes",
    "hgv": "no",
    "highway": "motorway",
    "lanes": "2",
    "layer": "2",
    "name": "常台高速",
    "name:en": "Changshu-Taizhou Expressway",
    "name:zh": "常台高速",
    "name:zh-Hans": "常台高速",
    "name:zh-Hant": "常台高速",
    "old_name": "苏嘉杭高速",
    "oneway": "yes",
    "ref": "G1522",
    "start_date": "2002-12-08",
    "surface": "asphalt",
    "toll": "yes"
  }
},
{
  "type": "way",
  "id": 109402030,
  "center": {
    "lat": 31.3051071,
    "lon": 120.6524350
  },
  "tags": {
    "bridge": "yes",
    "hgv": "no",
    "highway": "motorway",
    "lanes": "2",
    "layer": "2",
    "name": "常台高速",
    "name:en": "Changshu-Taizhou Expressway",
    "name:zh": "常台高速",
    "name:zh-Hans": "常台高速",
    "name:zh-Hant": "常台高速",
    "old_name": "苏嘉杭高速",
    "oneway": "yes",
    "ref": "G1522",
    "start_date": "2002-12-08",
    "surface": "asphalt",
    "toll": "yes"
  }
},
{
  "type": "way",
  "id": 109402032,
  "center": {
    "lat": 31.2618345,
    "lon": 120.6618333
  },
  "tags": {
    "bridge": "yes",
    "hgv": "no",
    "highway": "motorway",
    "lanes": "2",
    "layer": "1",
    "name": "常台高速",
    "name:en": "Changshu-Taizhou Expressway",
    "old_name": "苏嘉杭高速",
    "oneway": "yes",
    "ref": "G1522",
    "start_date": "2002-12-08",
    "surface": "asphalt",
    "toll": "yes"
  }
},
{
  "type": "way",
  "id": 115711165,
  "center": {
    "lat": 31.2856380,
    "lon": 120.6623904
  },
  "tags": {
    "bridge": "viaduct",
    "highway": "trunk",
    "layer": "1",
    "motorroad": "yes",
    "name": "独墅湖大道",
    "oneway": "yes"
  }
},
{
  "type": "way",
  "id": 147991165,
  "center": {
    "lat": 31.2624149,
    "lon": 120.6110848
  },
  "tags": {
    "highway": "secondary",
    "name": "太湖西路",
    "oneway": "yes"
  }
},
{
  "type": "way",
  "id": 147991169,
  "center": {
    "lat": 31.2679102,
    "lon": 120.6443158
  },
  "tags": {
    "highway": "tertiary",
    "name": "文曲路"
  }
},
{
  "type": "way",
  "id": 147991175,
  "center": {
    "lat": 31.2675377,
    "lon": 120.6389498
  },
  "tags": {
    "highway": "tertiary",
    "name": "夏莲路",
    "name:en": "Xialian Road"
  }
},
{
  "type": "way",
  "id": 147991176,
  "center": {
    "lat": 31.2665169,
    "lon": 120.6650106
  },
  "tags": {
    "highway": "primary",
    "name": "东方大道",
    "oneway": "yes",
    "ref": "X301"
  }
},
{
  "type": "way",
  "id": 147991181,
  "center": {
    "lat": 31.2654678,
    "lon": 120.6490575
  },
  "tags": {
    "bridge": "yes",
    "highway": "primary",
    "layer": "1",
    "name": "太湖东路",
    "oneway": "yes"
  }
},
{
  "type": "way",
  "id": 147991185,
  "center": {
    "lat": 31.2638651,
    "lon": 120.6252582
  },
  "tags": {
    "highway": "primary",
    "name": "东吴南路",
    "name:en": "Dongwu South Road",
    "oneway": "yes"
  }
},
{
  "type": "way",
  "id": 147991188,
  "center": {
    "lat": 31.2658289,
    "lon": 120.6541573
  },
  "tags": {
    "highway": "primary",
    "name": "东方大道",
    "oneway": "yes",
    "ref": "X301"
  }
},
{
  "type": "way",
  "id": 147991192,
  "center": {
    "lat": 31.2702836,
    "lon": 120.6419379
  },
  "tags": {
    "highway": "tertiary",
    "name": "丹桂路"
  }
},
{
  "type": "way",
  "id": 147991200,
  "center": {
    "lat": 31.2673235,
    "lon": 120.6358373
  },
  "tags": {
    "highway": "tertiary",
    "name": "文曲路",
    "surface": "asphalt"
  }
},
{
  "type": "way",
  "id": 147991201,
  "center": {
    "lat": 31.2688952,
    "lon": 120.6317519
  },
  "tags": {
    "highway": "tertiary",
    "name": "月浜街",
    "surface": "asphalt"
  }
},
{
  "type": "way",
  "id": 147991202,
  "center": {
    "lat": 31.2667036,
    "lon": 120.6282967
  },
  "tags": {
    "highway": "tertiary",
    "name": "文曲路"
  }
},
{
  "type": "way",
  "id": 147991207,
  "center": {
    "lat": 31.2644888,
    "lon": 120.6318462
  },
  "tags": {
    "highway": "primary",
    "name": "太湖东路",
    "oneway": "yes"
  }
},
{
  "type": "way",
  "id": 147991209,
  "center": {
    "lat": 31.2809463,
    "lon": 120.6151363
  },
  "tags": {
    "bridge": "yes",
    "highway": "trunk",
    "lanes": "4",
    "layer": "1",
    "motorroad": "yes",
    "name": "南环快速路",
    "oneway": "yes"
  }
},
{
  "type": "way",
  "id": 148516148,
  "center": {
    "lat": 31.2518113,
    "lon": 120.6604568
  },
  "tags": {
    "highway": "secondary",
    "name": "郭新西路",
    "oneway": "yes"
  }
},
{
  "type": "way",
  "id": 148518814,
  "center": {
    "lat": 31.2437648,
    "lon": 120.6624257
  },
  "tags": {
    "highway": "secondary",
    "name": "尹中路",
    "oneway": "yes"
  }
},
{
  "type": "way",
  "id": 148701483,
  "center": {
    "lat": 31.1275905,
    "lon": 120.6569172
  },
  "tags": {
    "NSIW": "III",
    "name": "京杭大运河",
    "name:de": "Kaiserkanal",
    "name:en": "Grand Canal",
    "name:zh": "京杭大运河",
    "name:zh-Hant": "京杭大運河",
    "name:zh-Latn-pinyin": "jīngháng yùnhé",
    "ship": "yes",
    "waterway": "canal"
  }
},
{
  "type": "way",
  "id": 154409707,
  "center": {
    "lat": 31.2712671,
    "lon": 120.6372185
  },
  "tags": {
    "landuse": "residential",
    "name": "嘉宝花园",
    "name:en": "Jiabao Gardens"
  }
},
{
  "type": "way",
  "id": 185791233,
  "center": {
    "lat": 31.2618724,
    "lon": 120.6619486
  },
  "tags": {
    "bridge": "yes",
    "hgv": "no",
    "highway": "motorway",
    "lanes": "2",
    "layer": "1",
    "name": "常台高速",
    "name:en": "Changshu-Taizhou Expressway",
    "old_name": "苏嘉杭高速",
    "oneway": "yes",
    "ref": "G1522",
    "start_date": "2002-12-08",
    "surface": "asphalt",
    "toll": "yes"
  }
},
{
  "type": "way",
  "id": 230926998,
  "center": {
    "lat": 31.2593410,
    "lon": 120.6107640
  },
  "tags": {
    "highway": "secondary",
    "name": "苏蠡路",
    "oneway": "yes"
  }
},
{
  "type": "way",
  "id": 243299125,
  "center": {
    "lat": 31.2399008,
    "lon": 120.6510383
  },
  "tags": {
    "highway": "trunk",
    "name": "东进路",
    "name:en": "Dongjin Road",
    "oneway": "yes",
    "ref": "G524",
    "surface": "asphalt"
  }
},
{
  "type": "way",
  "id": 243535091,
  "center": {
    "lat": 31.3914063,
    "lon": 120.4995272
  },
  "tags": {
    "NSIW": "III",
    "name": "京杭大运河",
    "name:de": "Kaiserkanal",
    "name:en": "Grand Canal",
    "name:zh": "京杭大运河",
    "name:zh-Hans": "京杭大运河",
    "name:zh-Hant": "京杭大運河",
    "name:zh-Latn-pinyin": "jīngháng yùnhé",
    "ship": "yes",
    "waterway": "canal"
  }
},
{
  "type": "way",
  "id": 266067036,
  "center": {
    "lat": 31.2733696,
    "lon": 120.6191614
  },
  "tags": {
    "electrified": "contact_line",
    "frequency": "0",
    "gauge": "1435",
    "layer": "-2",
    "maxspeed": "80",
    "name": "苏州地铁2号线",
    "name:zh": "苏州地铁2号线",
    "name:zh-Hans": "苏州地铁2号线",
    "name:zh-Hant": "蘇州地鐵2號線",
    "railway": "subway",
    "tunnel": "yes",
    "voltage": "1500",
    "wikidata": "Q1054280",
    "wikipedia": "zh:苏州地铁2号线"
  }
},
{
  "type": "way",
  "id": 293947723,
  "center": {
    "lat": 31.2770083,
    "lon": 120.6449042
  },
  "tags": {
    "alt_name": "刘家港",
    "alt_name:en": "Liujia",
    "alt_name:zh-Latn-pinyin": "liújiā găng",
    "name": "大运河",
    "name:zh-Latn-pinyin": "xīnliú hé",
    "nsdi_code": "FK2805",
    "waterway": "river",
    "zhb_code": "11FM190000"
  }
},
{
  "type": "way",
  "id": 343175606,
  "center": {
    "lat": 31.2529342,
    "lon": 120.6323012
  },
  "tags": {
    "highway": "secondary",
    "name": "枫津路"
  }
},
{
  "type": "way",
  "id": 343176075,
  "center": {
    "lat": 31.2473515,
    "lon": 120.6323266
  },
  "tags": {
    "highway": "secondary",
    "name": "天灵路"
  }
},
{
  "type": "way",
  "id": 343176077,
  "center": {
    "lat": 31.2436335,
    "lon": 120.6468000
  },
  "tags": {
    "highway": "tertiary",
    "name": "宝通路",
    "surface": "asphalt"
  }
},
{
  "type": "way",
  "id": 343177544,
  "center": {
    "lat": 31.2425846,
    "lon": 120.6596711
  },
  "tags": {
    "highway": "secondary",
    "name": "东进路",
    "name:en": "Dongjin Road",
    "oneway": "yes"
  }
},
{
  "type": "way",
  "id": 343177545,
  "center": {
    "lat": 31.2426692,
    "lon": 120.6596366
  },
  "tags": {
    "highway": "secondary",
    "name": "东进路",
    "name:en": "Dongjin Road",
    "oneway": "yes"
  }
},
{
  "type": "way",
  "id": 343177546,
  "center": {
    "lat": 31.2437648,
    "lon": 120.6624688
  },
  "tags": {
    "highway": "secondary",
    "name": "尹中路",
    "oneway": "yes"
  }
},
{
  "type": "way",
  "id": 343177547,
  "center": {
    "lat": 31.2405800,
    "lon": 120.6659766
  },
  "tags": {
    "highway": "tertiary",
    "name": "尹新路",
    "oneway": "yes"
  }
},
{
  "type": "way",
  "id": 343177548,
  "center": {
    "lat": 31.2406820,
    "lon": 120.6659481
  },
  "tags": {
    "highway": "tertiary",
    "name": "尹新路",
    "oneway": "yes"
  }
},
{
  "type": "way",
  "id": 343850134,
  "center": {
    "lat": 31.2540875,
    "lon": 120.6161713
  },
  "tags": {
    "highway": "tertiary",
    "name": "长蠡路",
    "surface": "asphalt"
  }
},
{
  "type": "way",
  "id": 350561464,
  "center": {
    "lat": 31.2842325,
    "lon": 120.6578059
  },
  "tags": {
    "highway": "secondary",
    "name": "文萃路"
  }
},
{
  "type": "way",
  "id": 358738805,
  "center": {
    "lat": 31.2673002,
    "lon": 120.6171787
  },
  "tags": {
    "highway": "tertiary",
    "name": "水香街"
  }
},
{
  "type": "way",
  "id": 358738806,
  "center": {
    "lat": 31.2657996,
    "lon": 120.6126529
  },
  "tags": {
    "highway": "tertiary",
    "name": "长兴街",
    "oneway": "yes"
  }
},
{
  "type": "way",
  "id": 358738807,
  "center": {
    "lat": 31.2644768,
    "lon": 120.6146247
  },
  "tags": {
    "highway": "tertiary",
    "name": "龙西路"
  }
},
{
  "type": "way",
  "id": 358738808,
  "center": {
    "lat": 31.2747315,
    "lon": 120.6128319
  },
  "tags": {
    "highway": "tertiary",
    "horse": "no",
    "name": "龙西路",
    "oneway": "no",
    "service": "driveway",
    "surface": "asphalt"
  }
},
{
  "type": "way",
  "id": 371734550,
  "center": {
    "lat": 31.2827161,
    "lon": 120.6308963
  },
  "tags": {
    "highway": "tertiary",
    "name": "青阳路"
  }
},
{
  "type": "way",
  "id": 395253892,
  "center": {
    "lat": 31.2438570,
    "lon": 120.6292334
  },
  "tags": {
    "highway": "tertiary",
    "name": "澄湖路"
  }
},
{
  "type": "way",
  "id": 395253893,
  "center": {
    "lat": 31.2427481,
    "lon": 120.6192407
  },
  "tags": {
    "landuse": "residential",
    "level": "11，5，2",
    "name": "S半岛清水湾花园"
  }
},
{
  "type": "way",
  "id": 423176204,
  "center": {
    "lat": 31.2849303,
    "lon": 120.6565669
  },
  "tags": {
    "highway": "primary",
    "name": "独墅湖大道辅路",
    "oneway": "yes"
  }
},
{
  "type": "way",
  "id": 423183748,
  "center": {
    "lat": 31.2652067,
    "lon": 120.6440685
  },
  "tags": {
    "highway": "primary",
    "name": "太湖东路",
    "oneway": "yes"
  }
},
{
  "type": "way",
  "id": 423183750,
  "center": {
    "lat": 31.2737090,
    "lon": 120.6448730
  },
  "tags": {
    "highway": "secondary",
    "name": "冬青路",
    "oneway": "yes"
  }
},
{
  "type": "way",
  "id": 423185240,
  "center": {
    "lat": 31.2737018,
    "lon": 120.6447617
  },
  "tags": {
    "highway": "secondary",
    "name": "冬青路",
    "oneway": "yes"
  }
},
{
  "type": "way",
  "id": 443616410,
  "center": {
    "lat": 31.2520953,
    "lon": 120.6438266
  },
  "tags": {
    "highway": "secondary",
    "name": "石湖东路",
    "oneway": "yes"
  }
},
{
  "type": "way",
  "id": 444316206,
  "center": {
    "lat": 31.2751141,
    "lon": 120.6104463
  },
  "tags": {
    "addr:city": "苏州市",
    "addr:housenumber": "248号",
    "addr:street": "吴中西路",
    "amenity": "school",
    "name": "城西中学",
    "name:en": "Chengxi Middle School"
  }
},
{
  "type": "way",
  "id": 444316209,
  "center": {
    "lat": 31.2758420,
    "lon": 120.6111816
  },
  "tags": {
    "highway": "tertiary",
    "horse": "no",
    "maxspeed": "20",
    "name": "城西街",
    "oneway": "no",
    "surface": "asphalt"
  }
},
{
  "type": "way",
  "id": 449483888,
  "center": {
    "lat": 31.2719072,
    "lon": 120.6528522
  },
  "tags": {
    "highway": "tertiary",
    "name": "北港路"
  }
},
{
  "type": "way",
  "id": 449484201,
  "center": {
    "lat": 31.2665008,
    "lon": 120.6069881
  },
  "tags": {
    "landuse": "residential",
    "name": "美之国花园"
  }
},
{
  "type": "way",
  "id": 449708063,
  "center": {
    "lat": 31.2436788,
    "lon": 120.6076588
  },
  "tags": {
    "highway": "secondary",
    "lanes": "2",
    "name": "澄湖路",
    "oneway": "no"
  }
},
{
  "type": "way",
  "id": 449708065,
  "center": {
    "lat": 31.2468046,
    "lon": 120.6091363
  },
  "tags": {
    "highway": "tertiary",
    "name": "南厍路"
  }
},
{
  "type": "way",
  "id": 449708066,
  "center": {
    "lat": 31.2518887,
    "lon": 120.6108669
  },
  "tags": {
    "highway": "secondary",
    "name": "苏蠡路",
    "oneway": "yes"
  }
},
{
  "type": "way",
  "id": 449708067,
  "center": {
    "lat": 31.2355149,
    "lon": 120.6090231
  },
  "tags": {
    "highway": "tertiary",
    "name": "南蠡墅街",
    "surface": "asphalt"
  }
},
{
  "type": "way",
  "id": 449708068,
  "center": {
    "lat": 31.2392950,
    "lon": 120.6100029
  },
  "tags": {
    "highway": "unclassified",
    "name": "北蠡墅街"
  }
},
{
  "type": "way",
  "id": 449708069,
  "center": {
    "lat": 31.2490510,
    "lon": 120.6085224
  },
  "tags": {
    "highway": "tertiary",
    "name": "先锋路",
    "surface": "asphalt"
  }
},
{
  "type": "way",
  "id": 449708369,
  "center": {
    "lat": 31.2548987,
    "lon": 120.6050765
  },
  "tags": {
    "highway": "secondary",
    "name": "石湖西路",
    "oneway": "yes"
  }
},
{
  "type": "way",
  "id": 449708370,
  "center": {
    "lat": 31.2550422,
    "lon": 120.6050752
  },
  "tags": {
    "highway": "secondary",
    "name": "石湖西路",
    "oneway": "yes"
  }
},
{
  "type": "way",
  "id": 449709922,
  "center": {
    "lat": 31.2848317,
    "lon": 120.6218689
  },
  "tags": {
    "highway": "primary",
    "name": "人民路",
    "name:en": "Renmin Rd",
    "oneway": "yes",
    "source": "Bing"
  }
},
{
  "type": "way",
  "id": 449710417,
  "center": {
    "lat": 31.2536315,
    "lon": 120.6357050
  },
  "tags": {
    "highway": "secondary",
    "name": "石湖东路",
    "oneway": "yes"
  }
},
{
  "type": "way",
  "id": 449710711,
  "center": {
    "lat": 31.2524076,
    "lon": 120.6378519
  },
  "tags": {
    "amenity": "school",
    "name": "碧波中学"
  }
},
{
  "type": "way",
  "id": 460257370,
  "center": {
    "lat": 31.2587641,
    "lon": 120.6494760
  },
  "tags": {
    "bicycle": "designated",
    "bridge": "yes",
    "foot": "designated",
    "heritage": "2",
    "highway": "path",
    "horse": "no",
    "incline": "yes",
    "motor_vehicle": "no",
    "mtb:scale": "0",
    "mtb:scale:imba": "0",
    "mtb:scale:uphill": "0",
    "name": "宝带桥",
    "sac_scale": "hiking",
    "segregated": "no",
    "tourism": "attraction",
    "trail_visibility": "excellent",
    "wikidata": "Q807059"
  }
},
{
  "type": "way",
  "id": 460257465,
  "center": {
    "lat": 31.2687590,
    "lon": 120.6383240
  },
  "tags": {
    "landuse": "residential",
    "name": "宝带东路229号"
  }
},
{
  "type": "way",
  "id": 460259166,
  "center": {
    "lat": 31.2608548,
    "lon": 120.6993028
  },
  "tags": {
    "colour": "red",
    "electrified": "contact_line",
    "frequency": "0",
    "gauge": "1435",
    "layer": "-1",
    "maxspeed": "80",
    "name": "苏州地铁2号线",
    "name:zh": "苏州地铁2号线",
    "name:zh-Hans": "苏州地铁2号线",
    "name:zh-Hant": "蘇州地鐵2號線",
    "railway": "subway",
    "tunnel": "yes",
    "voltage": "1500",
    "wikidata": "Q1054280",
    "wikipedia": "zh:苏州地铁2号线"
  }
},
{
  "type": "way",
  "id": 465393731,
  "center": {
    "lat": 31.2663285,
    "lon": 120.6603645
  },
  "tags": {
    "bridge": "yes",
    "highway": "primary",
    "lanes": "2",
    "layer": "1",
    "name": "东方大道",
    "oneway": "yes",
    "ref": "X301"
  }
},
{
  "type": "way",
  "id": 465396285,
  "center": {
    "lat": 31.2687696,
    "lon": 120.6507663
  },
  "tags": {
    "bridge": "viaduct",
    "highway": "trunk",
    "layer": "2",
    "motorroad": "yes",
    "name": "吴东快速路",
    "name:en": "Wudong Expressway",
    "oneway": "yes",
    "ref": "G524"
  }
},
{
  "type": "way",
  "id": 467167066,
  "center": {
    "lat": 31.2815781,
    "lon": 120.6331231
  },
  "tags": {
    "building": "yes",
    "name": "苏州市南门汽车客运站（出发大厅）"
  }
},
{
  "type": "way",
  "id": 467167067,
  "center": {
    "lat": 31.2799143,
    "lon": 120.6336915
  },
  "tags": {
    "building": "yes",
    "name": "苏州市南门汽车客运站（原到达大厅）"
  }
},
{
  "type": "way",
  "id": 467167068,
  "center": {
    "lat": 31.2820269,
    "lon": 120.6318638
  },
  "tags": {
    "building": "yes",
    "name": "汽车南站公交枢纽"
  }
},
{
  "type": "way",
  "id": 467167075,
  "center": {
    "lat": 31.2712383,
    "lon": 120.6483469
  },
  "tags": {
    "highway": "secondary",
    "name": "宝带东路",
    "oneway": "yes"
  }
},
{
  "type": "way",
  "id": 467364878,
  "center": {
    "lat": 31.2657221,
    "lon": 120.6507956
  },
  "tags": {
    "bridge": "yes",
    "highway": "primary",
    "layer": "1",
    "name": "太湖东路",
    "oneway": "yes"
  }
},
{
  "type": "way",
  "id": 467364881,
  "center": {
    "lat": 31.2656548,
    "lon": 120.6518875
  },
  "tags": {
    "highway": "primary",
    "name": "太湖东路",
    "oneway": "yes",
    "ref": "X301"
  }
},
{
  "type": "way",
  "id": 467364882,
  "center": {
    "lat": 31.2655148,
    "lon": 120.6487034
  },
  "tags": {
    "bridge": "yes",
    "highway": "primary",
    "layer": "1",
    "name": "太湖东路",
    "oneway": "yes"
  }
},
{
  "type": "way",
  "id": 467364884,
  "center": {
    "lat": 31.2656672,
    "lon": 120.6490561
  },
  "tags": {
    "bridge": "yes",
    "highway": "primary",
    "lanes": "2",
    "layer": "1",
    "name": "太湖东路",
    "oneway": "yes"
  }
},
{
  "type": "way",
  "id": 467364886,
  "center": {
    "lat": 31.2652862,
    "lon": 120.6440601
  },
  "tags": {
    "highway": "primary",
    "lanes": "2",
    "name": "太湖东路",
    "oneway": "yes"
  }
},
{
  "type": "way",
  "id": 467364892,
  "center": {
    "lat": 31.2807856,
    "lon": 120.6118901
  },
  "tags": {
    "highway": "primary",
    "name": "南环西路",
    "oneway": "yes"
  }
},
{
  "type": "way",
  "id": 467369516,
  "center": {
    "lat": 31.2657717,
    "lon": 120.6530054
  },
  "tags": {
    "highway": "primary",
    "name": "太湖东路",
    "oneway": "yes"
  }
},
{
  "type": "way",
  "id": 467369517,
  "center": {
    "lat": 31.2658852,
    "lon": 120.6529934
  },
  "tags": {
    "highway": "primary",
    "name": "太湖东路",
    "oneway": "yes"
  }
},
{
  "type": "way",
  "id": 468932714,
  "center": {
    "lat": 31.2713469,
    "lon": 120.6277218
  },
  "tags": {
    "highway": "tertiary",
    "name": "县前街"
  }
},
{
  "type": "way",
  "id": 468932715,
  "center": {
    "lat": 31.2709990,
    "lon": 120.6322412
  },
  "tags": {
    "amenity": "school",
    "education": "school",
    "name": "苏苑实验小学"
  }
},
{
  "type": "way",
  "id": 468932716,
  "center": {
    "lat": 31.2713906,
    "lon": 120.6318804
  },
  "tags": {
    "building": "yes",
    "leisure": "sports_centre",
    "name": "含悦楼"
  }
},
{
  "type": "way",
  "id": 468932718,
  "center": {
    "lat": 31.2709894,
    "lon": 120.6318799
  },
  "tags": {
    "building": "school",
    "name": "含英楼"
  }
},
{
  "type": "way",
  "id": 468932721,
  "center": {
    "lat": 31.2706785,
    "lon": 120.6319077
  },
  "tags": {
    "building": "school",
    "name": "含轩楼"
  }
},
{
  "type": "way",
  "id": 468932723,
  "center": {
    "lat": 31.2703724,
    "lon": 120.6319419
  },
  "tags": {
    "building": "school",
    "name": "含旭楼"
  }
},
{
  "type": "way",
  "id": 468932727,
  "center": {
    "lat": 31.2703846,
    "lon": 120.6325666
  },
  "tags": {
    "building": "school",
    "name": "含星厅"
  }
},
{
  "type": "way",
  "id": 468932728,
  "center": {
    "lat": 31.2705848,
    "lon": 120.6325473
  },
  "tags": {
    "building": "school",
    "name": "含硕楼"
  }
},
{
  "type": "way",
  "id": 468932729,
  "center": {
    "lat": 31.2702415,
    "lon": 120.6325797
  },
  "tags": {
    "building": "school",
    "name": "含谐楼"
  }
},
{
  "type": "way",
  "id": 468932730,
  "center": {
    "lat": 31.2708077,
    "lon": 120.6318601
  },
  "tags": {
    "leisure": "garden",
    "name": "磐安园"
  }
},
{
  "type": "way",
  "id": 468932731,
  "center": {
    "lat": 31.2705042,
    "lon": 120.6318795
  },
  "tags": {
    "leisure": "garden",
    "name": "雅真园"
  }
},
{
  "type": "way",
  "id": 468932732,
  "center": {
    "lat": 31.2703798,
    "lon": 120.6325904
  },
  "tags": {
    "leisure": "garden",
    "name": "秀韵园"
  }
},
{
  "type": "way",
  "id": 468932734,
  "center": {
    "lat": 31.2713179,
    "lon": 120.6325296
  },
  "tags": {
    "leisure": "pitch",
    "name": "田径场"
  }
},
{
  "type": "way",
  "id": 468932735,
  "center": {
    "lat": 31.2711071,
    "lon": 120.6318478
  },
  "tags": {
    "amenity": "parking",
    "name": "地下停车场入口"
  }
},
{
  "type": "way",
  "id": 468932737,
  "center": {
    "lat": 31.2700904,
    "lon": 120.6322033
  },
  "tags": {
    "building": "yes",
    "name": "警卫室"
  }
},
{
  "type": "way",
  "id": 468932738,
  "center": {
    "lat": 31.2716851,
    "lon": 120.6315886
  },
  "tags": {
    "building": "yes",
    "name": "警卫室"
  }
},
{
  "type": "way",
  "id": 471494118,
  "center": {
    "lat": 31.2684118,
    "lon": 120.6381914
  },
  "tags": {
    "addr:housenumber": "229号",
    "addr:postcode": "215128",
    "building": "residential",
    "building:levels": "5",
    "name": "5栋"
  }
},
{
  "type": "way",
  "id": 471494120,
  "center": {
    "lat": 31.2684468,
    "lon": 120.6386659
  },
  "tags": {
    "addr:housenumber": "229号",
    "addr:postcode": "215128",
    "building": "residential",
    "building:levels": "4",
    "name": "4栋"
  }
},
{
  "type": "way",
  "id": 471494122,
  "center": {
    "lat": 31.2686458,
    "lon": 120.6382537
  },
  "tags": {
    "addr:housenumber": "229号",
    "addr:postcode": "215128",
    "building": "residential",
    "building:levels": "5",
    "name": "3栋"
  }
},
{
  "type": "way",
  "id": 471494125,
  "center": {
    "lat": 31.2688785,
    "lon": 120.6382955
  },
  "tags": {
    "addr:housenumber": "229号",
    "addr:postcode": "215128",
    "building": "residential",
    "building:levels": "5",
    "name": "2栋"
  }
},
{
  "type": "way",
  "id": 471494128,
  "center": {
    "lat": 31.2691297,
    "lon": 120.6382821
  },
  "tags": {
    "addr:housenumber": "229号",
    "addr:postcode": "215128",
    "building": "residential",
    "building:levels": "5",
    "name": "1栋"
  }
},
{
  "type": "way",
  "id": 471494130,
  "center": {
    "lat": 31.2686652,
    "lon": 120.6386486
  },
  "tags": {
    "addr:housenumber": "229号",
    "addr:postcode": "215128",
    "building": "residential",
    "building:levels": "2",
    "name": "6栋"
  }
},
{
  "type": "way",
  "id": 471494132,
  "center": {
    "lat": 31.2688380,
    "lon": 120.6387133
  },
  "tags": {
    "building": "yes",
    "name": "传达室"
  }
},
{
  "type": "way",
  "id": 471494155,
  "center": {
    "lat": 31.2677371,
    "lon": 120.6359730
  },
  "tags": {
    "building": "yes",
    "name": "香雪海酒店"
  }
},
{
  "type": "way",
  "id": 471494158,
  "center": {
    "lat": 31.2684408,
    "lon": 120.6361713
  },
  "tags": {
    "building": "yes",
    "name": "东吴·水韵假日酒店"
  }
},
{
  "type": "way",
  "id": 471780503,
  "center": {
    "lat": 31.2713114,
    "lon": 120.6436661
  },
  "tags": {
    "building": "hospital",
    "name": "苏大附一院广慈分院"
  }
},
{
  "type": "way",
  "id": 477097108,
  "center": {
    "lat": 31.2730954,
    "lon": 120.6307990
  },
  "tags": {
    "amenity": "marketplace",
    "building": "yes",
    "name": "月浜菜场"
  }
},
{
  "type": "way",
  "id": 503535613,
  "center": {
    "lat": 31.2247729,
    "lon": 120.6527833
  },
  "tags": {
    "highway": "trunk",
    "lanes": "3",
    "name": "交通路",
    "name:en": "Jiaotong Road",
    "oneway": "yes",
    "ref": "G524",
    "smoothness": "good",
    "surface": "asphalt"
  }
},
{
  "type": "way",
  "id": 503535623,
  "center": {
    "lat": 31.2638506,
    "lon": 120.6249887
  },
  "tags": {
    "highway": "primary",
    "name": "东吴南路",
    "name:en": "Dongwu South Road",
    "oneway": "yes"
  }
},
{
  "type": "way",
  "id": 503535624,
  "center": {
    "lat": 31.2617950,
    "lon": 120.6251534
  },
  "tags": {
    "bridge": "yes",
    "highway": "primary",
    "layer": "1",
    "name": "东吴南路",
    "name:en": "Dongwu South Road",
    "oneway": "yes"
  }
},
{
  "type": "way",
  "id": 503535625,
  "center": {
    "lat": 31.2565510,
    "lon": 120.6252998
  },
  "tags": {
    "highway": "primary",
    "name": "东吴南路",
    "name:en": "Dongwu South Road",
    "oneway": "yes"
  }
},
{
  "type": "way",
  "id": 503535626,
  "center": {
    "lat": 31.2617973,
    "lon": 120.6252455
  },
  "tags": {
    "bridge": "yes",
    "highway": "primary",
    "layer": "1",
    "name": "东吴南路",
    "name:en": "Dongwu South Road",
    "oneway": "yes"
  }
},
{
  "type": "way",
  "id": 503535640,
  "center": {
    "lat": 31.2375770,
    "lon": 120.6479433
  },
  "tags": {
    "highway": "trunk",
    "name": "交通路",
    "name:en": "Jiaotong Road",
    "oneway": "yes",
    "ref": "G524",
    "surface": "asphalt"
  }
},
{
  "type": "way",
  "id": 503535643,
  "center": {
    "lat": 31.2380884,
    "lon": 120.6474816
  },
  "tags": {
    "highway": "trunk",
    "name": "交通路",
    "name:en": "Jiaotong Road",
    "oneway": "yes",
    "ref": "G524",
    "surface": "asphalt"
  }
},
{
  "type": "way",
  "id": 503535674,
  "center": {
    "lat": 31.2408937,
    "lon": 120.6541917
  },
  "tags": {
    "bridge": "yes",
    "highway": "trunk",
    "layer": "1",
    "name": "东进路",
    "name:en": "Dongjin Road",
    "oneway": "yes",
    "ref": "G524",
    "surface": "asphalt"
  }
},
{
  "type": "way",
  "id": 503535677,
  "center": {
    "lat": 31.2413526,
    "lon": 120.6558509
  },
  "tags": {
    "highway": "trunk",
    "name": "东进路",
    "name:en": "Dongjin Road",
    "oneway": "yes",
    "ref": "G524",
    "surface": "asphalt"
  }
},
{
  "type": "way",
  "id": 503535679,
  "center": {
    "lat": 31.2414383,
    "lon": 120.6558270
  },
  "tags": {
    "highway": "trunk",
    "name": "东进路",
    "name:en": "Dongjin Road",
    "oneway": "yes",
    "ref": "G524",
    "surface": "asphalt"
  }
},
{
  "type": "way",
  "id": 503535682,
  "center": {
    "lat": 31.2408202,
    "lon": 120.6542158
  },
  "tags": {
    "bridge": "yes",
    "highway": "trunk",
    "layer": "1",
    "name": "东进路",
    "name:en": "Dongjin Road",
    "oneway": "yes",
    "ref": "G524",
    "surface": "asphalt"
  }
},
{
  "type": "way",
  "id": 503535684,
  "center": {
    "lat": 31.2378405,
    "lon": 120.6452245
  },
  "tags": {
    "highway": "primary",
    "name": "东进路",
    "name:en": "Dongjin Road",
    "oneway": "yes"
  }
},
{
  "type": "way",
  "id": 503904831,
  "center": {
    "lat": 31.2692657,
    "lon": 120.6394980
  },
  "tags": {
    "building": "kindergarten",
    "name": "宝带实验小学附属幼儿园"
  }
},
{
  "type": "way",
  "id": 503904832,
  "center": {
    "lat": 31.2694296,
    "lon": 120.6395906
  },
  "tags": {
    "building": "kindergarten",
    "name": "宝带实验小学附属幼儿园"
  }
},
{
  "type": "way",
  "id": 503904833,
  "center": {
    "lat": 31.2689171,
    "lon": 120.6397162
  },
  "tags": {
    "building": "kindergarten",
    "name": "宝带实验小学附属幼儿园"
  }
},
{
  "type": "way",
  "id": 503904836,
  "center": {
    "lat": 31.2683289,
    "lon": 120.6402119
  },
  "tags": {
    "building": "school",
    "name": "宝带实验小学"
  }
},
{
  "type": "way",
  "id": 503904837,
  "center": {
    "lat": 31.2680520,
    "lon": 120.6401182
  },
  "tags": {
    "building": "school",
    "name": "宝带实验小学"
  }
},
{
  "type": "way",
  "id": 503904838,
  "center": {
    "lat": 31.2677415,
    "lon": 120.6401264
  },
  "tags": {
    "building": "school",
    "name": "宝带实验小学"
  }
},
{
  "type": "way",
  "id": 507515740,
  "center": {
    "lat": 31.2841472,
    "lon": 120.6460670
  },
  "tags": {
    "embankment": "yes",
    "highway": "trunk",
    "lanes": "2",
    "motorroad": "yes",
    "name": "南环快速路",
    "oneway": "yes"
  }
},
{
  "type": "way",
  "id": 509134582,
  "center": {
    "lat": 31.2662385,
    "lon": 120.6603736
  },
  "tags": {
    "bridge": "yes",
    "highway": "primary",
    "layer": "1",
    "name": "东方大道",
    "oneway": "yes",
    "ref": "X301"
  }
},
{
  "type": "way",
  "id": 509134585,
  "center": {
    "lat": 31.2660197,
    "lon": 120.6551477
  },
  "tags": {
    "highway": "primary",
    "lanes": "2",
    "name": "东方大道",
    "oneway": "yes",
    "ref": "X301"
  }
},
{
  "type": "way",
  "id": 509134588,
  "center": {
    "lat": 31.2657941,
    "lon": 120.6536345
  },
  "tags": {
    "bridge": "yes",
    "highway": "primary",
    "layer": "1",
    "name": "东方大道",
    "oneway": "yes",
    "ref": "X301"
  }
},
{
  "type": "way",
  "id": 509134590,
  "center": {
    "lat": 31.2659454,
    "lon": 120.6536078
  },
  "tags": {
    "bridge": "yes",
    "highway": "primary",
    "lanes": "2",
    "layer": "1",
    "name": "东方大道",
    "oneway": "yes",
    "ref": "X301"
  }
},
{
  "type": "way",
  "id": 509134594,
  "center": {
    "lat": 31.2658669,
    "lon": 120.6518434
  },
  "tags": {
    "highway": "primary",
    "lanes": "2",
    "name": "太湖东路",
    "oneway": "yes",
    "ref": "X301"
  }
},
{
  "type": "way",
  "id": 509134601,
  "center": {
    "lat": 31.2653949,
    "lon": 120.6469310
  },
  "tags": {
    "bridge": "yes",
    "highway": "primary",
    "layer": "1",
    "name": "太湖东路",
    "oneway": "yes"
  }
},
{
  "type": "way",
  "id": 509134603,
  "center": {
    "lat": 31.2656521,
    "lon": 120.6507983
  },
  "tags": {
    "bridge": "yes",
    "highway": "primary",
    "layer": "1",
    "name": "太湖东路",
    "oneway": "yes"
  }
},
{
  "type": "way",
  "id": 509134605,
  "center": {
    "lat": 31.2655985,
    "lon": 120.6487020
  },
  "tags": {
    "bridge": "yes",
    "highway": "primary",
    "layer": "1",
    "name": "太湖东路",
    "oneway": "yes"
  }
},
{
  "type": "way",
  "id": 509134608,
  "center": {
    "lat": 31.2654878,
    "lon": 120.6469269
  },
  "tags": {
    "bridge": "yes",
    "highway": "primary",
    "lanes": "2",
    "layer": "1",
    "name": "太湖东路",
    "oneway": "yes"
  }
},
{
  "type": "way",
  "id": 510511583,
  "center": {
    "lat": 31.2819356,
    "lon": 120.6570764
  },
  "tags": {
    "amenity": "school",
    "name": "苏州工业园区文萃小学"
  }
},
{
  "type": "way",
  "id": 510511584,
  "center": {
    "lat": 31.2827915,
    "lon": 120.6575246
  },
  "tags": {
    "amenity": "kindergarten",
    "name": "苏州工业园区娄葑街道葑谊幼儿园文萃分园"
  }
},
{
  "type": "way",
  "id": 510511585,
  "center": {
    "lat": 31.2821981,
    "lon": 120.6591582
  },
  "tags": {
    "landuse": "residential",
    "name": "群星苑二区"
  }
},
{
  "type": "way",
  "id": 510511586,
  "center": {
    "lat": 31.2833330,
    "lon": 120.6600739
  },
  "tags": {
    "landuse": "residential",
    "name": "群星苑一区"
  }
},
{
  "type": "way",
  "id": 510511587,
  "center": {
    "lat": 31.2840402,
    "lon": 120.6568036
  },
  "tags": {
    "landuse": "residential",
    "name": "群星苑四区"
  }
},
{
  "type": "way",
  "id": 510640703,
  "center": {
    "lat": 31.2853085,
    "lon": 120.6444393
  },
  "tags": {
    "landuse": "residential",
    "name": "南环东路3号小区"
  }
},
{
  "type": "way",
  "id": 510640704,
  "center": {
    "lat": 31.2856546,
    "lon": 120.6456207
  },
  "tags": {
    "landuse": "residential",
    "name": "现代花园东区"
  }
},
{
  "type": "way",
  "id": 510640708,
  "center": {
    "lat": 31.2812438,
    "lon": 120.6505895
  },
  "tags": {
    "landuse": "residential",
    "name": "栖庭"
  }
},
{
  "type": "way",
  "id": 510640709,
  "center": {
    "lat": 31.2815881,
    "lon": 120.6535775
  },
  "tags": {
    "landuse": "residential",
    "name": "群星苑三区"
  }
},
{
  "type": "way",
  "id": 510640719,
  "center": {
    "lat": 31.2850764,
    "lon": 120.6660395
  },
  "tags": {
    "amenity": "school",
    "name": "苏州工业园区文萃小学（企鸿路校区）"
  }
},
{
  "type": "way",
  "id": 510640721,
  "center": {
    "lat": 31.2806887,
    "lon": 120.6646928
  },
  "tags": {
    "landuse": "residential",
    "name": "欢寓"
  }
},
{
  "type": "way",
  "id": 510640722,
  "center": {
    "lat": 31.2812054,
    "lon": 120.6646049
  },
  "tags": {
    "landuse": "commercial",
    "name": "联发大厦"
  }
},
{
  "type": "way",
  "id": 510640726,
  "center": {
    "lat": 31.2848898,
    "lon": 120.6638598
  },
  "tags": {
    "landuse": "residential",
    "name": "锦程之星公寓"
  }
},
{
  "type": "way",
  "id": 518848443,
  "center": {
    "lat": 31.2685474,
    "lon": 120.6367087
  },
  "tags": {
    "landuse": "residential",
    "name": "宝带一村"
  }
},
{
  "type": "way",
  "id": 518848444,
  "center": {
    "lat": 31.2704425,
    "lon": 120.6076149
  },
  "tags": {
    "landuse": "residential",
    "name": "盘蠡花园"
  }
},
{
  "type": "way",
  "id": 518848445,
  "center": {
    "lat": 31.2709198,
    "lon": 120.6338560
  },
  "tags": {
    "landuse": "residential",
    "name": "嘉宝花园（二期）"
  }
},
{
  "type": "way",
  "id": 518848446,
  "center": {
    "lat": 31.2672612,
    "lon": 120.6344605
  },
  "tags": {
    "landuse": "residential",
    "name": "嘉宝花园（三期）"
  }
},
{
  "type": "way",
  "id": 518848447,
  "center": {
    "lat": 31.2661680,
    "lon": 120.6375029
  },
  "tags": {
    "landuse": "residential",
    "name": "嘉宝花园（三期）"
  }
},
{
  "type": "way",
  "id": 518848448,
  "center": {
    "lat": 31.2725584,
    "lon": 120.6405724
  },
  "tags": {
    "landuse": "residential",
    "name": "长桥新村"
  }
},
{
  "type": "way",
  "id": 523332277,
  "center": {
    "lat": 31.2407422,
    "lon": 120.6438573
  },
  "tags": {
    "highway": "unclassified",
    "name": "阳山路"
  }
},
{
  "type": "way",
  "id": 523332282,
  "center": {
    "lat": 31.2361334,
    "lon": 120.6330303
  },
  "tags": {
    "highway": "secondary",
    "name": "枫泾南路",
    "oneway": "yes",
    "surface": "asphalt"
  }
},
{
  "type": "way",
  "id": 523332283,
  "center": {
    "lat": 31.2361316,
    "lon": 120.6329731
  },
  "tags": {
    "highway": "secondary",
    "name": "枫泾南路",
    "oneway": "yes",
    "surface": "asphalt"
  }
},
{
  "type": "way",
  "id": 523332284,
  "center": {
    "lat": 31.2575219,
    "lon": 120.6320298
  },
  "tags": {
    "highway": "tertiary",
    "name": "枫津路"
  }
},
{
  "type": "way",
  "id": 523332285,
  "center": {
    "lat": 31.2416867,
    "lon": 120.6374388
  },
  "tags": {
    "highway": "tertiary",
    "name": "宝丰路"
  }
},
{
  "type": "way",
  "id": 523332287,
  "center": {
    "lat": 31.2579249,
    "lon": 120.6282708
  },
  "tags": {
    "highway": "residential",
    "name": "商贸街"
  }
},
{
  "type": "way",
  "id": 523332288,
  "center": {
    "lat": 31.2569045,
    "lon": 120.6267366
  },
  "tags": {
    "highway": "unclassified",
    "name": "花园街"
  }
},
{
  "type": "way",
  "id": 523332289,
  "center": {
    "lat": 31.2569796,
    "lon": 120.6269282
  },
  "tags": {
    "highway": "tertiary",
    "name": "商城大街"
  }
},
{
  "type": "way",
  "id": 523332290,
  "center": {
    "lat": 31.2580880,
    "lon": 120.6290965
  },
  "tags": {
    "highway": "tertiary",
    "name": "商中街"
  }
},
{
  "type": "way",
  "id": 523332291,
  "center": {
    "lat": 31.2582819,
    "lon": 120.6286293
  },
  "tags": {
    "highway": "unclassified",
    "name": "碧波街"
  }
},
{
  "type": "way",
  "id": 523332294,
  "center": {
    "lat": 31.2434819,
    "lon": 120.6498656
  },
  "tags": {
    "highway": "tertiary",
    "name": "澄湖东路"
  }
},
{
  "type": "way",
  "id": 523332295,
  "center": {
    "lat": 31.2473554,
    "lon": 120.6462731
  },
  "tags": {
    "highway": "tertiary",
    "name": "天灵路"
  }
},
{
  "type": "way",
  "id": 523332296,
  "center": {
    "lat": 31.2509674,
    "lon": 120.6334061
  },
  "tags": {
    "highway": "tertiary",
    "name": "广建路"
  }
},
{
  "type": "way",
  "id": 523332299,
  "center": {
    "lat": 31.2581900,
    "lon": 120.6158387
  },
  "tags": {
    "highway": "tertiary",
    "name": "新门路"
  }
},
{
  "type": "way",
  "id": 523332300,
  "center": {
    "lat": 31.2572229,
    "lon": 120.6080507
  },
  "tags": {
    "highway": "tertiary",
    "name": "旺吴路",
    "surface": "asphalt"
  }
},
{
  "type": "way",
  "id": 523332302,
  "center": {
    "lat": 31.2491561,
    "lon": 120.6128700
  },
  "tags": {
    "highway": "unclassified",
    "name": "长运街"
  }
},
{
  "type": "way",
  "id": 523332305,
  "center": {
    "lat": 31.2526609,
    "lon": 120.6082299
  },
  "tags": {
    "highway": "tertiary",
    "name": "翻身路"
  }
},
{
  "type": "way",
  "id": 523332308,
  "center": {
    "lat": 31.2450032,
    "lon": 120.6084966
  },
  "tags": {
    "highway": "unclassified",
    "name": "绮川路"
  }
},
{
  "type": "way",
  "id": 523332332,
  "center": {
    "lat": 31.2341349,
    "lon": 120.6649849
  },
  "tags": {
    "highway": "secondary",
    "name": "尹中南路"
  }
},
{
  "type": "way",
  "id": 523332334,
  "center": {
    "lat": 31.2476459,
    "lon": 120.6610460
  },
  "tags": {
    "highway": "tertiary",
    "name": "尹山路"
  }
},
{
  "type": "way",
  "id": 523332335,
  "center": {
    "lat": 31.2507802,
    "lon": 120.6641549
  },
  "tags": {
    "highway": "unclassified",
    "name": "一品街"
  }
},
{
  "type": "way",
  "id": 523332340,
  "center": {
    "lat": 31.2538814,
    "lon": 120.6623907
  },
  "tags": {
    "highway": "residential",
    "name": "谷盛路"
  }
},
{
  "type": "way",
  "id": 523332341,
  "center": {
    "lat": 31.2540361,
    "lon": 120.6584788
  },
  "tags": {
    "highway": "tertiary",
    "name": "谷盛路"
  }
},
{
  "type": "way",
  "id": 523332345,
  "center": {
    "lat": 31.2558019,
    "lon": 120.6549553
  },
  "tags": {
    "highway": "tertiary",
    "name": "西九盛街"
  }
},
{
  "type": "way",
  "id": 523332346,
  "center": {
    "lat": 31.2542719,
    "lon": 120.6568197
  },
  "tags": {
    "highway": "tertiary",
    "name": "蔡家浜路"
  }
},
{
  "type": "way",
  "id": 523332347,
  "center": {
    "lat": 31.2508529,
    "lon": 120.6634636
  },
  "tags": {
    "highway": "tertiary",
    "name": "彩虹路"
  }
},
{
  "type": "way",
  "id": 523332348,
  "center": {
    "lat": 31.2549866,
    "lon": 120.6600002
  },
  "tags": {
    "highway": "tertiary",
    "name": "姜庄路"
  }
},
{
  "type": "way",
  "id": 523332351,
  "center": {
    "lat": 31.2706610,
    "lon": 120.6586564
  },
  "tags": {
    "hgv": "no",
    "highway": "motorway",
    "lanes": "2",
    "name": "常台高速",
    "name:en": "Changshu-Taizhou Expressway",
    "old_name": "苏嘉杭高速",
    "oneway": "yes",
    "ref": "G1522",
    "start_date": "2002-12-08",
    "surface": "asphalt",
    "toll": "yes"
  }
},
{
  "type": "way",
  "id": 523332352,
  "center": {
    "lat": 31.2706033,
    "lon": 120.6585404
  },
  "tags": {
    "hgv": "no",
    "highway": "motorway",
    "lanes": "2",
    "name": "常台高速",
    "name:en": "Changshu-Taizhou Expressway",
    "old_name": "苏嘉杭高速",
    "oneway": "yes",
    "ref": "G1522",
    "start_date": "2002-12-08",
    "surface": "asphalt",
    "toll": "yes"
  }
},
{
  "type": "way",
  "id": 523332353,
  "center": {
    "lat": 31.2570161,
    "lon": 120.6639866
  },
  "tags": {
    "hgv": "no",
    "highway": "motorway",
    "lanes": "2",
    "name": "常台高速",
    "name:en": "Changshu-Taizhou Expressway",
    "old_name": "苏嘉杭高速",
    "oneway": "yes",
    "ref": "G1522",
    "start_date": "2002-12-08",
    "surface": "asphalt",
    "toll": "yes"
  }
},
{
  "type": "way",
  "id": 523332354,
  "center": {
    "lat": 31.2570296,
    "lon": 120.6641172
  },
  "tags": {
    "hgv": "no",
    "highway": "motorway",
    "lanes": "2",
    "name": "常台高速",
    "name:en": "Changshu-Taizhou Expressway",
    "old_name": "苏嘉杭高速",
    "oneway": "yes",
    "ref": "G1522",
    "start_date": "2002-12-08",
    "surface": "asphalt",
    "toll": "yes"
  }
},
{
  "type": "way",
  "id": 523332383,
  "center": {
    "lat": 31.2842264,
    "lon": 120.6661878
  },
  "tags": {
    "highway": "tertiary",
    "name": "企鸿路"
  }
},
{
  "type": "way",
  "id": 523332401,
  "center": {
    "lat": 31.2686900,
    "lon": 120.6245709
  },
  "tags": {
    "cycleway:right": "track",
    "highway": "primary",
    "name": "东吴北路",
    "name:en": "Dongwu North Road",
    "oneway": "yes",
    "surface": "asphalt"
  }
},
{
  "type": "way",
  "id": 523332404,
  "center": {
    "lat": 31.2769286,
    "lon": 120.6231766
  },
  "tags": {
    "highway": "primary",
    "name": "东吴北路",
    "name:en": "Dongwu North Road",
    "oneway": "yes"
  }
},
{
  "type": "way",
  "id": 523332418,
  "center": {
    "lat": 31.2849568,
    "lon": 120.6516662
  },
  "tags": {
    "highway": "primary",
    "name": "南环东路",
    "oneway": "yes"
  }
},
{
  "type": "way",
  "id": 523568605,
  "center": {
    "lat": 31.2828543,
    "lon": 120.6316654
  },
  "tags": {
    "bridge": "viaduct",
    "highway": "trunk",
    "layer": "1",
    "motorroad": "yes",
    "name": "南环快速路",
    "name:en": "South Ring Rd",
    "oneway": "yes"
  }
},
{
  "type": "way",
  "id": 523621575,
  "center": {
    "lat": 31.2541242,
    "lon": 120.6367146
  },
  "tags": {
    "highway": "tertiary",
    "name": "迎春南路",
    "oneway": "no"
  }
},
{
  "type": "way",
  "id": 523621576,
  "center": {
    "lat": 31.2749516,
    "lon": 120.6388116
  },
  "tags": {
    "highway": "tertiary",
    "name": "夏莲路"
  }
},
{
  "type": "way",
  "id": 523621579,
  "center": {
    "lat": 31.2708500,
    "lon": 120.6458827
  },
  "tags": {
    "bridge": "yes",
    "highway": "secondary",
    "name": "宝带东路",
    "name:en": "East Baodai Road",
    "oneway": "yes"
  }
},
{
  "type": "way",
  "id": 523621582,
  "center": {
    "lat": 31.2700328,
    "lon": 120.6273724
  },
  "tags": {
    "cycleway:both": "track",
    "highway": "tertiary",
    "name": "东苑路",
    "surface": "asphalt"
  }
},
{
  "type": "way",
  "id": 523621585,
  "center": {
    "lat": 31.2813518,
    "lon": 120.6288110
  },
  "tags": {
    "highway": "unclassified",
    "name": "鼎盛巷"
  }
},
{
  "type": "way",
  "id": 523621586,
  "center": {
    "lat": 31.2833505,
    "lon": 120.6289100
  },
  "tags": {
    "highway": "unclassified",
    "name": "同和街"
  }
},
{
  "type": "way",
  "id": 523621587,
  "center": {
    "lat": 31.2844213,
    "lon": 120.6290769
  },
  "tags": {
    "highway": "tertiary",
    "name": "南环大街"
  }
},
{
  "type": "way",
  "id": 526782513,
  "center": {
    "lat": 31.2820846,
    "lon": 120.6109963
  },
  "tags": {
    "highway": "tertiary",
    "name": "杨家浜弄"
  }
},
{
  "type": "way",
  "id": 527033386,
  "center": {
    "lat": 31.2248389,
    "lon": 120.6529509
  },
  "tags": {
    "highway": "trunk",
    "lanes": "3",
    "name": "交通路",
    "name:en": "Jiaotong Road",
    "oneway": "yes",
    "ref": "G524",
    "smoothness": "good",
    "surface": "asphalt"
  }
},
{
  "type": "way",
  "id": 527033392,
  "center": {
    "lat": 31.2383046,
    "lon": 120.6461265
  },
  "tags": {
    "highway": "primary",
    "name": "东进路",
    "name:en": "Dongjin Road",
    "oneway": "yes"
  }
},
{
  "type": "way",
  "id": 527033394,
  "center": {
    "lat": 31.2389717,
    "lon": 120.6484790
  },
  "tags": {
    "highway": "trunk",
    "name": "东进路",
    "name:en": "Dongjin Road",
    "oneway": "yes",
    "ref": "G524",
    "surface": "asphalt"
  }
},
{
  "type": "way",
  "id": 527221514,
  "center": {
    "lat": 31.2834636,
    "lon": 120.6391091
  },
  "tags": {
    "highway": "trunk",
    "lanes": "4",
    "motorroad": "yes",
    "name": "南环快速路",
    "oneway": "yes"
  }
},
{
  "type": "way",
  "id": 527221515,
  "center": {
    "lat": 31.2835744,
    "lon": 120.6388253
  },
  "tags": {
    "highway": "trunk",
    "motorroad": "yes",
    "name": "南环快速路",
    "name:en": "South Ring Rd",
    "oneway": "yes"
  }
},
{
  "type": "way",
  "id": 527221517,
  "center": {
    "lat": 31.2838787,
    "lon": 120.6431713
  },
  "tags": {
    "bridge": "yes",
    "highway": "trunk",
    "lanes": "3",
    "layer": "1",
    "motorroad": "yes",
    "name": "南环快速路",
    "oneway": "yes"
  }
},
{
  "type": "way",
  "id": 527221518,
  "center": {
    "lat": 31.2847025,
    "lon": 120.6511422
  },
  "tags": {
    "bridge": "viaduct",
    "highway": "trunk",
    "layer": "1",
    "motorroad": "yes",
    "name": "南环快速路",
    "name:en": "South Ring Rd",
    "oneway": "yes"
  }
},
{
  "type": "way",
  "id": 527501841,
  "center": {
    "lat": 31.2721350,
    "lon": 120.6497997
  },
  "tags": {
    "highway": "primary",
    "name": "吴东路",
    "oneway": "yes",
    "ref": "S227"
  }
},
{
  "type": "way",
  "id": 527501842,
  "center": {
    "lat": 31.2846698,
    "lon": 120.6493209
  },
  "tags": {
    "highway": "primary",
    "name": "吴东路",
    "oneway": "yes",
    "ref": "S227"
  }
},
{
  "type": "way",
  "id": 527501850,
  "center": {
    "lat": 31.2834454,
    "lon": 120.6385535
  },
  "tags": {
    "highway": "trunk",
    "lanes": "4",
    "motorroad": "yes",
    "name": "南环快速路",
    "oneway": "yes"
  }
},
{
  "type": "way",
  "id": 527517247,
  "center": {
    "lat": 31.3034668,
    "lon": 120.6470837
  },
  "tags": {
    "bridge": "viaduct",
    "highway": "trunk",
    "layer": "2",
    "maxspeed": "80",
    "motorroad": "yes",
    "name": "东环快速路",
    "name:en": "East Ring Road Viaduct",
    "name:zh": "东环快速路",
    "name:zh-Hans": "东环快速路",
    "name:zh-Hant": "東環快速路",
    "oneway": "yes",
    "ref": "G524"
  }
},
{
  "type": "way",
  "id": 527517248,
  "center": {
    "lat": 31.3034824,
    "lon": 120.6472225
  },
  "tags": {
    "bridge": "viaduct",
    "highway": "trunk",
    "layer": "2",
    "maxspeed": "80",
    "motorroad": "yes",
    "name": "东环快速路",
    "name:en": "East Ring Road Viaduct",
    "name:zh": "东环快速路",
    "name:zh-Hans": "东环快速路",
    "name:zh-Hant": "東環快速路",
    "oneway": "yes",
    "ref": "G524"
  }
},
{
  "type": "way",
  "id": 529389053,
  "center": {
    "lat": 31.2662948,
    "lon": 120.6277772
  },
  "tags": {
    "building": "yes",
    "name": "吴中区政府",
    "office": "government"
  }
},
{
  "type": "way",
  "id": 532856962,
  "center": {
    "lat": 31.2441587,
    "lon": 120.6650006
  },
  "tags": {
    "highway": "tertiary",
    "name": "东进路",
    "oneway": "yes"
  }
},
{
  "type": "way",
  "id": 532856963,
  "center": {
    "lat": 31.2440539,
    "lon": 120.6650360
  },
  "tags": {
    "highway": "tertiary",
    "name": "东进路",
    "oneway": "yes"
  }
},
{
  "type": "way",
  "id": 533927175,
  "center": {
    "lat": 31.2842338,
    "lon": 120.6434393
  },
  "tags": {
    "bridge": "yes",
    "highway": "primary",
    "layer": "1",
    "name": "南环东路",
    "oneway": "yes"
  }
},
{
  "type": "way",
  "id": 533927176,
  "center": {
    "lat": 31.2840501,
    "lon": 120.6414430
  },
  "tags": {
    "highway": "primary",
    "name": "南环东路",
    "oneway": "yes"
  }
},
{
  "type": "way",
  "id": 533927177,
  "center": {
    "lat": 31.2836746,
    "lon": 120.6436396
  },
  "tags": {
    "bridge": "yes",
    "highway": "primary",
    "layer": "1",
    "name": "南环东路",
    "oneway": "yes"
  }
},
{
  "type": "way",
  "id": 536568406,
  "center": {
    "lat": 31.2711630,
    "lon": 120.6483654
  },
  "tags": {
    "highway": "secondary",
    "name": "宝带东路",
    "oneway": "yes"
  }
},
{
  "type": "way",
  "id": 536568407,
  "center": {
    "lat": 31.2707836,
    "lon": 120.6458952
  },
  "tags": {
    "bridge": "yes",
    "highway": "secondary",
    "name": "宝带东路",
    "name:en": "East Baodai Road",
    "oneway": "yes"
  }
},
{
  "type": "way",
  "id": 536568409,
  "center": {
    "lat": 31.2700143,
    "lon": 120.6399029
  },
  "tags": {
    "highway": "secondary",
    "name": "宝带东路",
    "name:en": "East Baodai Road",
    "oneway": "yes"
  }
},
{
  "type": "way",
  "id": 536568410,
  "center": {
    "lat": 31.2704708,
    "lon": 120.6430698
  },
  "tags": {
    "highway": "secondary",
    "name": "宝带东路",
    "name:en": "East Baodai Road",
    "oneway": "yes"
  }
},
{
  "type": "way",
  "id": 536568411,
  "center": {
    "lat": 31.2697784,
    "lon": 120.6376226
  },
  "tags": {
    "bridge": "yes",
    "highway": "secondary",
    "layer": "1",
    "name": "宝带东路",
    "name:en": "East Baodai Road",
    "oneway": "yes"
  }
},
{
  "type": "way",
  "id": 536568412,
  "center": {
    "lat": 31.2698459,
    "lon": 120.6376226
  },
  "tags": {
    "bridge": "yes",
    "highway": "secondary",
    "layer": "1",
    "name": "宝带东路",
    "name:en": "East Baodai Road",
    "oneway": "yes"
  }
},
{
  "type": "way",
  "id": 536568413,
  "center": {
    "lat": 31.2695504,
    "lon": 120.6286216
  },
  "tags": {
    "cycleway:right": "track",
    "highway": "secondary",
    "lanes": "2",
    "name": "宝带东路",
    "name:en": "East Baodai Road",
    "oneway": "yes",
    "surface": "asphalt"
  }
},
{
  "type": "way",
  "id": 536568414,
  "center": {
    "lat": 31.2698623,
    "lon": 120.6363493
  },
  "tags": {
    "cycleway:right": "track",
    "highway": "secondary",
    "name": "宝带东路",
    "name:en": "East Baodai Road",
    "oneway": "yes",
    "surface": "asphalt"
  }
},